$GNRMC,211041.00,A,4024.98796,N,00340.22512,W,0.027,,010218,,,D*7B
$GNRMC,211042.00,A,4024.98775,N,00340.22511,W,0.033,,010218,,,D*73
$GNRMC,211043.00,A,4024.98754,N,00340.22509,W,0.026,,010218,,,D*7C
$GNRMC,211044.00,A,4024.98744,N,00340.22505,W,0.040,,010218,,,D*76
$GNRMC,211045.00,A,4024.98737,N,00340.22501,W,0.081,,010218,,,D*7A
$GNRMC,211046.00,A,4024.98732,N,00340.22496,W,0.091,,010218,,,D*72
$GNRMC,211047.00,A,4024.98729,N,00340.22492,W,0.018,,010218,,,D*7C
$GNRMC,211048.00,A,4024.98725,N,00340.22488,W,0.017,,010218,,,D*7B
$GNRMC,211049.00,A,4024.98718,N,00340.22485,W,0.029,,010218,,,D*74
$GNRMC,211050.00,A,4024.98709,N,00340.22481,W,0.008,,010218,,,D*7B
$GNRMC,211051.00,A,4024.98698,N,00340.22478,W,0.065,,010218,,,D*7E
$GNRMC,211052.00,A,4024.98691,N,00340.22474,W,0.075,,010218,,,D*79
$GNRMC,211053.00,A,4024.98686,N,00340.22471,W,0.074,,010218,,,D*7A
$GNRMC,211054.00,A,4024.98676,N,00340.22469,W,0.032,,010218,,,D*79
$GNRMC,211055.00,A,4024.98667,N,00340.22464,W,0.057,,010218,,,D*76
$GNRMC,211056.00,A,4024.98657,N,00340.22461,W,0.009,,010218,,,D*78
$GNRMC,211057.00,A,4024.98651,N,00340.22459,W,0.080,,010218,,,D*75
$GNRMC,211058.00,A,4024.98645,N,00340.22455,W,0.055,,010218,,,D*7B
$GNRMC,211059.00,A,4024.98640,N,00340.22451,W,0.018,,010218,,,D*72
$GNRMC,211100.00,A,4024.98635,N,00340.22446,W,0.038,,010218,,,D*79
$GNRMC,211101.00,A,4024.98632,N,00340.22441,W,0.074,,010218,,,D*70
$GNRMC,211102.00,A,4024.98630,N,00340.22437,W,0.111,,010218,,,D*72
$GNRMC,211103.00,A,4024.98626,N,00340.22434,W,0.005,,010218,,,D*73
$GNRMC,211104.00,A,4024.98617,N,00340.22430,W,0.040,,010218,,,D*73
$GNRMC,211105.00,A,4024.98607,N,00340.22427,W,0.116,,010218,,,D*77
$GNRMC,211106.00,A,4024.98596,N,00340.22422,W,0.076,,010218,,,D*7D
$GNRMC,211107.00,A,4024.98587,N,00340.22418,W,0.050,,010218,,,D*71
$GNRMC,211108.00,A,4024.98577,N,00340.22414,W,0.088,,010218,,,D*78
$GNRMC,211109.00,A,4024.98569,N,00340.22409,W,0.025,,010218,,,D*7D
$GNRMC,211110.00,A,4024.98558,N,00340.22405,W,0.031,,010218,,,D*7E
$GNRMC,211111.00,A,4024.98546,N,00340.22400,W,0.032,,010218,,,D*76
$GNRMC,211112.00,A,4024.98537,N,00340.22396,W,0.053,,010218,,,D*7C
$GNRMC,211113.00,A,4024.98535,N,00340.22394,W,0.047,,010218,,,D*78
$GNRMC,211114.00,A,4024.98536,N,00340.22391,W,0.121,,010218,,,D*78
$GNRMC,211115.00,A,4024.98538,N,00340.22388,W,0.008,,010218,,,D*75
$GNRMC,211116.00,A,4024.98539,N,00340.22385,W,0.047,,010218,,,D*71
$GNRMC,211117.00,A,4024.98540,N,00340.22383,W,0.019,,010218,,,D*73
$GNRMC,211118.00,A,4024.98541,N,00340.22382,W,0.048,,010218,,,D*78
$GNRMC,211119.00,A,4024.98542,N,00340.22379,W,0.023,,010218,,,D*73
$GNRMC,211120.00,A,4024.98544,N,00340.22375,W,0.005,,010218,,,D*77
$GNRMC,211121.00,A,4024.98545,N,00340.22371,W,0.094,,010218,,,D*7B
$GNRMC,211122.00,A,4024.98549,N,00340.22367,W,0.171,,010218,,,D*79
$GNRMC,211123.00,A,4024.98552,N,00340.22363,W,0.011,,010218,,,D*71
$GNRMC,211124.00,A,4024.98557,N,00340.22360,W,0.023,,010218,,,D*71
$GNRMC,211125.00,A,4024.98558,N,00340.22357,W,0.048,,010218,,,D*76
$GNRMC,211126.00,A,4024.98559,N,00340.22354,W,0.023,,010218,,,D*7A
$GNRMC,211127.00,A,4024.98560,N,00340.22351,W,0.057,,010218,,,D*77
$GNRMC,211128.00,A,4024.98564,N,00340.22350,W,0.086,,010218,,,D*71
$GNRMC,211129.00,A,4024.98565,N,00340.22347,W,0.036,,010218,,,D*7C
$GNRMC,211130.00,A,4024.98569,N,00340.22344,W,0.031,,010218,,,D*7C
$GNRMC,211131.00,A,4024.98577,N,00340.22340,W,0.120,,010218,,,D*77
$GNRMC,211132.00,A,4024.98582,N,00340.22335,W,0.140,,010218,,,D*7A
$GNRMC,211133.00,A,4024.98590,N,00340.22332,W,0.086,,010218,,,D*74
$GNRMC,211134.00,A,4024.98597,N,00340.22329,W,0.126,,010218,,,D*75
$GNRMC,211135.00,A,4024.98600,N,00340.22326,W,0.058,,010218,,,D*7E
$GNRMC,211136.00,A,4024.98609,N,00340.22323,W,0.081,,010218,,,D*75
$GNRMC,211137.00,A,4024.98702,N,00340.22344,W,0.186,,010218,,,D*79
$GNRMC,211138.00,A,4024.98756,N,00340.22345,W,0.153,,010218,,,D*7E
$GNRMC,211139.00,A,4024.98768,N,00340.22338,W,0.024,,010218,,,D*79
$GNRMC,211140.00,A,4024.98767,N,00340.22326,W,0.087,,010218,,,D*7E
$GNRMC,211141.00,A,4024.98756,N,00340.22316,W,0.103,,010218,,,D*73
$GNRMC,211142.00,A,4024.98760,N,00340.22299,W,0.122,,010218,,,D*70
$GNRMC,211143.00,A,4024.98773,N,00340.22292,W,0.047,,010218,,,D*7A
$GNRMC,211144.00,A,4024.98781,N,00340.22286,W,0.075,,010218,,,D*74
$GNRMC,211145.00,A,4024.98790,N,00340.22274,W,0.165,,010218,,,D*78
$GNRMC,211146.00,A,4024.98794,N,00340.22263,W,0.145,,010218,,,D*7B
$GNRMC,211147.00,A,4024.98787,N,00340.22248,W,0.072,,010218,,,D*74
$GNRMC,211148.00,A,4024.98785,N,00340.22229,W,0.032,,010218,,,D*7A
$GNRMC,211149.00,A,4024.98785,N,00340.22216,W,0.030,,010218,,,D*75
$GNRMC,211150.00,A,4024.98783,N,00340.22202,W,0.083,,010218,,,D*76
$GNRMC,211151.00,A,4024.98778,N,00340.22192,W,0.024,,010218,,,D*74
$GNRMC,211152.00,A,4024.98767,N,00340.22181,W,0.089,,010218,,,D*7C
$GNRMC,211153.00,A,4024.98776,N,00340.22177,W,0.048,,010218,,,D*79
$GNRMC,211154.00,A,4024.98788,N,00340.22178,W,0.012,,010218,,,D*7F
$GNRMC,211155.00,A,4024.98794,N,00340.22176,W,0.018,,010218,,,D*77
$GNRMC,211156.00,A,4024.98798,N,00340.22177,W,0.036,,010218,,,D*75
$GNRMC,211157.00,A,4024.98797,N,00340.22180,W,0.019,,010218,,,D*7E
$GNRMC,211158.00,A,4024.98795,N,00340.22180,W,0.039,,010218,,,D*71
$GNRMC,211159.00,A,4024.98795,N,00340.22178,W,0.027,,010218,,,D*78
$GNRMC,211200.00,A,4024.98796,N,00340.22177,W,0.080,,010218,,,D*76
$GNRMC,211201.00,A,4024.98794,N,00340.22180,W,0.143,,010218,,,D*73
$GNRMC,211202.00,A,4024.98801,N,00340.22181,W,0.046,,010218,,,D*76
$GNRMC,211203.00,A,4024.98807,N,00340.22182,W,0.097,,010218,,,D*7E
$GNRMC,211204.00,A,4024.98815,N,00340.22185,W,0.087,,010218,,,D*7C
$GNRMC,211205.00,A,4024.98819,N,00340.22188,W,0.110,,010218,,,D*73
$GNRMC,211206.00,A,4024.98819,N,00340.22193,W,0.055,,010218,,,D*7A
$GNRMC,211207.00,A,4024.98816,N,00340.22198,W,0.009,,010218,,,D*76
$GNRMC,211208.00,A,4024.98813,N,00340.22202,W,0.041,,010218,,,D*70
$GNRMC,211209.00,A,4024.98811,N,00340.22206,W,0.017,,010218,,,D*74
$GNRMC,211210.00,A,4024.98805,N,00340.22210,W,0.033,,010218,,,D*78
$GNRMC,211211.00,A,4024.98825,N,00340.22218,W,0.149,,010218,,,D*7F
$GNRMC,211801.00,A,4024.98695,N,00340.23001,W,0.033,,010218,,,D*76
$GNRMC,211802.00,A,4024.98673,N,00340.22994,W,0.063,,010218,,,D*7C
$GNRMC,211803.00,A,4024.98674,N,00340.22987,W,0.105,,010218,,,D*79
$GNRMC,211804.00,A,4024.98668,N,00340.22980,W,0.046,,010218,,,D*72
$GNRMC,211805.00,A,4024.98666,N,00340.22971,W,0.016,,010218,,,D*76
$GLGSV,2,1,06,74,40,138,39,75,79,346,22,76,28,326,,84,28,034,26*63
$GNRMC,211806.00,A,4024.98680,N,00340.22958,W,0.245,,010218,,,D*72
$GLGSV,2,1,06,74,40,138,39,75,80,347,22,76,28,326,,84,28,034,26*64
$GNRMC,211807.00,A,4024.98691,N,00340.22946,W,0.296,,010218,,,D*72
$GLGSV,2,1,06,74,40,138,38,75,80,347,22,76,29,326,,84,28,034,25*67
$GNRMC,211808.00,A,4024.98697,N,00340.22934,W,0.088,,010218,,,D*73
$GLGSV,2,1,06,74,40,138,39,75,80,347,22,76,29,326,,84,28,034,25*66
$GNRMC,211809.00,A,4024.98693,N,00340.22923,W,0.174,,010218,,,D*72
$GLGSV,2,1,06,74,40,138,39,75,80,347,23,76,29,326,,84,28,034,25*67
$GNRMC,211810.00,A,4024.98707,N,00340.22906,W,0.142,,010218,,,D*74
$GNRMC,211811.00,A,4024.98712,N,00340.22896,W,0.026,,010218,,,D*7A
$GNRMC,211812.00,A,4024.98718,N,00340.22883,W,0.022,,010218,,,D*73
$GNRMC,211813.00,A,4024.98707,N,00340.22871,W,0.285,,010218,,,D*7E
$GNRMC,211814.00,A,4024.98712,N,00340.22858,W,0.088,,010218,,,D*79
$GNRMC,211815.00,A,4024.98705,N,00340.22847,W,0.207,,010218,,,D*75
$GNRMC,211816.00,A,4024.98701,N,00340.22836,W,0.206,,010218,,,D*75
$GNRMC,211817.00,A,4024.98701,N,00340.22818,W,0.202,,010218,,,D*7C
$GNRMC,211818.00,A,4024.98700,N,00340.22800,W,0.027,,010218,,,D*7E
$GNRMC,211819.00,A,4024.98704,N,00340.22783,W,0.041,,010218,,,D*7F
$GNRMC,211820.00,A,4024.98704,N,00340.22767,W,0.048,,010218,,,D*76
$GNRMC,211821.00,A,4024.98699,N,00340.22753,W,0.071,,010218,,,D*7F
$GNRMC,211822.00,A,4024.98699,N,00340.22736,W,0.081,,010218,,,D*70
$GNRMC,211823.00,A,4024.98703,N,00340.22718,W,0.183,,010218,,,D*7C
$GNRMC,211824.00,A,4024.98707,N,00340.22700,W,0.074,,010218,,,D*7F
$GNRMC,211825.00,A,4024.98707,N,00340.22684,W,0.079,,010218,,,D*7E
$GNRMC,211826.00,A,4024.98709,N,00340.22668,W,0.064,,010218,,,D*7D
$GNRMC,211827.00,A,4024.98712,N,00340.22651,W,0.126,,010218,,,D*7B
$GNRMC,211828.00,A,4024.98716,N,00340.22635,W,0.043,,010218,,,D*70
$GNRMC,211829.00,A,4024.98718,N,00340.22624,W,0.125,,010218,,,D*7E
$GNRMC,211830.00,A,4024.98719,N,00340.22612,W,0.162,,010218,,,D*71
$GNRMC,211831.00,A,4024.98722,N,00340.22597,W,0.085,,010218,,,D*7E
$GNRMC,211832.00,A,4024.98732,N,00340.22582,W,0.049,,010218,,,D*78
$GNRMC,211833.00,A,4024.98732,N,00340.22569,W,0.283,,010218,,,D*78
$GNRMC,211834.00,A,4024.98740,N,00340.22555,W,0.227,,010218,,,D*7B
$GLGSV,2,1,06,74,40,138,40,75,80,347,20,76,29,326,19,84,28,034,18*6C
$GNRMC,211835.00,A,4024.98757,N,00340.22540,W,0.081,,010218,,,D*76
$GNRMC,211836.00,A,4024.98769,N,00340.22525,W,0.048,,010218,,,D*7E
$GNRMC,211837.00,A,4024.98770,N,00340.22512,W,0.119,,010218,,,D*76
$GNRMC,211838.00,A,4024.98775,N,00340.22500,W,0.062,,010218,,,D*72
$GNRMC,211839.00,A,4024.98778,N,00340.22488,W,0.149,,010218,,,D*77
$GNRMC,211840.00,A,4024.98780,N,00340.22476,W,0.203,,010218,,,D*72
$GNRMC,211841.00,A,4024.98777,N,00340.22466,W,0.174,,010218,,,D*79
$GNRMC,211842.00,A,4024.98776,N,00340.22456,W,0.138,,010218,,,D*70
$GNRMC,211843.00,A,4024.98782,N,00340.22446,W,0.050,,010218,,,D*74
$GLGSV,2,1,06,74,40,138,39,75,80,347,18,76,29,326,20,84,28,034,21*69
$GNRMC,211844.00,A,4024.98781,N,00340.22438,W,0.032,,010218,,,D*7D
$GNRMC,211845.00,A,4024.98781,N,00340.22428,W,0.224,,010218,,,D*78
$GNRMC,211846.00,A,4024.98775,N,00340.22420,W,0.369,,010218,,,D*70
$GNRMC,211847.00,A,4024.98771,N,00340.22412,W,0.371,,010218,,,D*7D
$GNRMC,211848.00,A,4024.98766,N,00340.22405,W,0.142,,010218,,,D*70
$GNRMC,211849.00,A,4024.98774,N,00340.22397,W,0.072,,010218,,,D*7C
$GNRMC,211850.00,A,4024.98782,N,00340.22389,W,0.034,,010218,,,D*70
$GNRMC,211851.00,A,4024.98783,N,00340.22381,W,0.060,,010218,,,D*79
$GNRMC,211852.00,A,4024.98790,N,00340.22373,W,0.089,,010218,,,D*72
$GNRMC,211853.00,A,4024.98793,N,00340.22365,W,0.042,,010218,,,D*70
$GNRMC,211854.00,A,4024.98793,N,00340.22358,W,0.171,,010218,,,D*78
$GNRMC,211855.00,A,4024.98796,N,00340.22351,W,0.100,,010218,,,D*73
$GNRMC,211856.00,A,4024.98804,N,00340.22345,W,0.039,,010218,,,D*7A
$GNRMC,211857.00,A,4024.98805,N,00340.22339,W,0.100,,010218,,,D*7A
$GNRMC,211858.00,A,4024.98795,N,00340.22335,W,0.062,,010218,,,D*7A
$GNRMC,211859.00,A,4024.98782,N,00340.22330,W,0.050,,010218,,,D*79
$GNRMC,211900.00,A,4024.98769,N,00340.22327,W,0.095,,010218,,,D*7E
$GNRMC,211901.00,A,4024.98760,N,00340.22324,W,0.048,,010218,,,D*75
$GNRMC,211902.00,A,4024.98750,N,00340.22320,W,0.122,,010218,,,D*7C
$GNRMC,211903.00,A,4024.98743,N,00340.22316,W,0.039,,010218,,,D*71
$GNRMC,211904.00,A,4024.98737,N,00340.22313,W,0.043,,010218,,,D*7D
$GNRMC,211905.00,A,4024.98737,N,00340.22308,W,0.084,,010218,,,D*7D
$GNRMC,211906.00,A,4024.98741,N,00340.22303,W,0.072,,010218,,,D*7D
$GNRMC,211907.00,A,4024.98749,N,00340.22298,W,0.025,,010218,,,D*75
$GNRMC,211908.00,A,4024.98757,N,00340.22293,W,0.027,,010218,,,D*7C
$GNRMC,211909.00,A,4024.98762,N,00340.22289,W,0.044,,010218,,,D*75
$GNRMC,211910.00,A,4024.98769,N,00340.22283,W,0.038,,010218,,,D*77
$GNRMC,211911.00,A,4024.98772,N,00340.22279,W,0.252,,010218,,,D*77
$GNRMC,211912.00,A,4024.98778,N,00340.22275,W,0.334,,010218,,,D*73
$GNRMC,211913.00,A,4024.98782,N,00340.22272,W,0.027,,010218,,,D*71
$GNRMC,211914.00,A,4024.98785,N,00340.22269,W,0.117,,010218,,,D*79
$GNRMC,211915.00,A,4024.98788,N,00340.22267,W,0.181,,010218,,,D*74
$GNRMC,211916.00,A,4024.98790,N,00340.22265,W,0.133,,010218,,,D*75
$GNRMC,211917.00,A,4024.98785,N,00340.22263,W,0.083,,010218,,,D*7C
$GNRMC,211918.00,A,4024.98775,N,00340.22262,W,0.107,,010218,,,D*70
$GNRMC,211919.00,A,4024.98764,N,00340.22261,W,0.043,,010218,,,D*73
$GNRMC,211920.00,A,4024.98751,N,00340.22261,W,0.041,,010218,,,D*7D
$GNRMC,211921.00,A,4024.98731,N,00340.22262,W,0.108,,010218,,,D*75
$GNRMC,211922.00,A,4024.98712,N,00340.22263,W,0.114,,010218,,,D*7B
$GLGSV,2,1,07,68,00,026,,74,40,138,39,75,80,347,15,76,30,326,16*60
$GNRMC,211923.00,A,4024.98692,N,00340.22264,W,0.034,,010218,,,D*77
$GLGSV,2,1,07,68,00,026,,74,40,138,39,75,80,347,16,76,30,326,16*63
$GNRMC,211924.00,A,4024.98674,N,00340.22264,W,0.155,,010218,,,D*7E
$GLGSV,2,1,07,68,00,026,,74,40,138,39,75,80,347,17,76,30,326,16*62
$GNRMC,211925.00,A,4024.98657,N,00340.22265,W,0.098,,010218,,,D*7F
$GNRMC,211926.00,A,4024.98642,N,00340.22266,W,0.027,,010218,,,D*7F
$GNRMC,214013.00,A,4024.98960,N,00340.22088,W,0.332,,010218,,,D*7F
$GNRMC,214014.00,A,4024.98970,N,00340.22099,W,0.191,,010218,,,D*72
$GNRMC,214015.00,A,4024.98975,N,00340.22111,W,0.242,,010218,,,D*7A
$GNRMC,214016.00,A,4024.98979,N,00340.22121,W,0.268,,010218,,,D*7E
$GNRMC,214017.00,A,4024.98990,N,00340.22128,W,0.024,,010218,,,D*7B
$GNRMC,214018.00,A,4024.98993,N,00340.22138,W,0.084,,010218,,,D*7C
$GNRMC,214019.00,A,4024.98997,N,00340.22150,W,0.042,,010218,,,D*7D
$GNRMC,214020.00,A,4024.99005,N,00340.22157,W,0.015,,010218,,,D*71
$GNRMC,214021.00,A,4024.99015,N,00340.22166,W,0.110,,010218,,,D*77
$GNRMC,214022.00,A,4024.99024,N,00340.22174,W,0.014,,010218,,,D*70
$GNRMC,214023.00,A,4024.99034,N,00340.22184,W,0.100,,010218,,,D*7B
$GNRMC,214024.00,A,4024.99041,N,00340.22192,W,0.056,,010218,,,D*7B
$GNRMC,214025.00,A,4024.99048,N,00340.22201,W,0.079,,010218,,,D*77
$GNRMC,214026.00,A,4024.99052,N,00340.22211,W,0.120,,010218,,,D*73
$GNRMC,214027.00,A,4024.99057,N,00340.22221,W,0.208,,010218,,,D*7D
$GNRMC,214028.00,A,4024.99055,N,00340.22229,W,0.023,,010218,,,D*73
$GNRMC,214029.00,A,4024.99062,N,00340.22238,W,0.109,,010218,,,D*7F
$GNRMC,214030.00,A,4024.99057,N,00340.22252,W,0.054,,010218,,,D*74
$GNRMC,214031.00,A,4024.99047,N,00340.22263,W,0.103,,010218,,,D*75
$GNRMC,214032.00,A,4024.99043,N,00340.22274,W,0.137,,010218,,,D*73
$GNRMC,214033.00,A,4024.99043,N,00340.22289,W,0.069,,010218,,,D*7A
$GNRMC,214034.00,A,4024.99040,N,00340.22303,W,0.055,,010218,,,D*72
$GNRMC,214035.00,A,4024.99039,N,00340.22315,W,0.039,,010218,,,D*70
$GNRMC,214036.00,A,4024.99033,N,00340.22325,W,0.087,,010218,,,D*7F
$GNRMC,214037.00,A,4024.99032,N,00340.22333,W,0.059,,010218,,,D*7B
$GNRMC,214038.00,A,4024.99050,N,00340.22344,W,0.039,,010218,,,D*76
$GNRMC,214039.00,A,4024.99066,N,00340.22367,W,0.059,,010218,,,D*75
$GNRMC,214040.00,A,4024.99068,N,00340.22377,W,0.035,,010218,,,D*7E
$GNRMC,214041.00,A,4024.99055,N,00340.22387,W,0.125,,010218,,,D*7E
$GNRMC,214042.00,A,4024.99049,N,00340.22396,W,0.166,,010218,,,D*77
$GNRMC,214043.00,A,4024.99049,N,00340.22405,W,0.111,,010218,,,D*7B
$GNRMC,214044.00,A,4024.99048,N,00340.22414,W,0.033,,010218,,,D*7C
$GNRMC,214045.00,A,4024.99049,N,00340.22423,W,0.067,,010218,,,D*79
$GNRMC,214046.00,A,4024.99055,N,00340.22430,W,0.005,,010218,,,D*71
$GNRMC,214047.00,A,4024.99058,N,00340.22436,W,0.016,,010218,,,D*79
$GNRMC,214048.00,A,4024.99064,N,00340.22441,W,0.051,,010218,,,D*7A
$GNRMC,214049.00,A,4024.99076,N,00340.22442,W,0.038,,010218,,,D*74
$GNRMC,214050.00,A,4024.99093,N,00340.22442,W,0.055,,010218,,,D*7C
$GNRMC,214051.00,A,4024.99111,N,00340.22441,W,0.029,,010218,,,D*7E
$GNRMC,214052.00,A,4024.99124,N,00340.22440,W,0.015,,010218,,,D*75
$GNRMC,214053.00,A,4024.99146,N,00340.22437,W,0.088,,010218,,,D*74
$GNRMC,214054.00,A,4024.99172,N,00340.22433,W,0.009,,010218,,,D*79
$GNRMC,214055.00,A,4024.99199,N,00340.22426,W,0.045,,010218,,,D*71
$GNRMC,214056.00,A,4024.99232,N,00340.22420,W,0.041,,010218,,,D*72
$GNRMC,214057.00,A,4024.99267,N,00340.22412,W,0.061,,010218,,,D*70
$GNRMC,214058.00,A,4024.99300,N,00340.22405,W,0.085,,010218,,,D*73
$GNRMC,214059.00,A,4024.99332,N,00340.22397,W,0.061,,010218,,,D*75
$GNRMC,214100.00,A,4024.99370,N,00340.22387,W,0.044,,010218,,,D*78
$GNRMC,214101.00,A,4024.99405,N,00340.22380,W,0.113,,010218,,,D*78
$GNRMC,214102.00,A,4024.99439,N,00340.22369,W,0.158,,010218,,,D*7C
$GNRMC,214103.00,A,4024.99457,N,00340.22366,W,0.065,,010218,,,D*75
$GNRMC,214104.00,A,4024.99474,N,00340.22362,W,0.119,,010218,,,D*7D
$GNRMC,214105.00,A,4024.99488,N,00340.22362,W,0.052,,010218,,,D*71
$GNRMC,214106.00,A,4024.99490,N,00340.22360,W,0.071,,010218,,,D*78
$GNRMC,214107.00,A,4024.99514,N,00340.22360,W,0.028,,010218,,,D*78
$GNRMC,214108.00,A,4024.99532,N,00340.22359,W,0.129,,010218,,,D*79
$GNRMC,214109.00,A,4024.99547,N,00340.22354,W,0.214,,010218,,,D*7A
$GNRMC,214110.00,A,4024.99564,N,00340.22350,W,0.295,,010218,,,D*7E
$GNRMC,214111.00,A,4024.99592,N,00340.22348,W,0.209,,010218,,,D*7A
$GNRMC,214112.00,A,4024.99610,N,00340.22347,W,0.014,,010218,,,D*71
$GNRMC,214113.00,A,4024.99645,N,00340.22344,W,0.035,,010218,,,D*70
$GNRMC,214114.00,A,4024.99691,N,00340.22339,W,0.075,,010218,,,D*70
$GNRMC,214115.00,A,4024.99738,N,00340.22334,W,0.141,,010218,,,D*78
$GNRMC,214116.00,A,4024.99785,N,00340.22329,W,0.303,,010218,,,D*75
$GNRMC,214117.00,A,4024.99887,N,00340.22306,W,0.395,,010218,,,D*7B
$GNRMC,214118.00,A,4025.00018,N,00340.22276,W,0.506,75.85,010218,,,D*50
$GNRMC,215018.00,A,4024.99697,N,00340.22149,W,0.196,,010218,,,D*73
$GNGSA,A,3,86,74,85,75,84,,,,,,,,1.66,1.01,1.32*13
$GNRMC,215019.00,A,4024.99708,N,00340.22111,W,0.126,,010218,,,D*73
$GNGSA,A,3,86,74,85,75,84,,,,,,,,1.78,1.09,1.40*11
$GNRMC,215020.00,A,4024.99722,N,00340.22072,W,0.171,,010218,,,D*77
$GNRMC,215021.00,A,4024.99730,N,00340.22038,W,0.128,,010218,,,D*77
$GNRMC,215022.00,A,4024.99732,N,00340.22012,W,0.083,,010218,,,D*7E
$GNRMC,215023.00,A,4024.99740,N,00340.21991,W,0.075,,010218,,,D*72
$GNRMC,215024.00,A,4024.99744,N,00340.21969,W,0.106,,010218,,,D*73
$GNRMC,215025.00,A,4024.99738,N,00340.21949,W,0.077,,010218,,,D*7C
$GNRMC,215026.00,A,4024.99737,N,00340.21930,W,0.061,,010218,,,D*79
$GNRMC,215027.00,A,4024.99734,N,00340.21914,W,0.154,,010218,,,D*7A
$GNRMC,215028.00,A,4024.99725,N,00340.21899,W,0.022,,010218,,,D*71
$GNRMC,215029.00,A,4024.99722,N,00340.21885,W,0.062,,010218,,,D*7E
$GNGSA,A,3,86,74,85,75,84,,,,,,,,1.43,0.86,1.14*1E
$GNRMC,215030.00,A,4024.99730,N,00340.21874,W,0.099,,010218,,,D*7F
$GNGSA,A,3,86,74,85,75,84,,,,,,,,1.85,1.23,1.38*14
$GNRMC,215031.00,A,4024.99743,N,00340.21863,W,0.111,,010218,,,D*7D
$GNGSA,A,3,86,74,85,75,84,,,,,,,,1.85,1.23,1.38*14
$GNRMC,215032.00,A,4024.99750,N,00340.21855,W,0.052,,010218,,,D*7F
$GNGSA,A,3,86,74,85,75,84,,,,,,,,1.85,1.23,1.38*14
$GNRMC,215033.00,A,4024.99760,N,00340.21848,W,0.269,,010218,,,D*7B
$GNRMC,215034.00,A,4024.99763,N,00340.21845,W,0.086,,010218,,,D*71
$GNGSA,A,3,86,74,85,75,84,,,,,,,,1.36,0.79,1.11*19
$GNRMC,215035.00,A,4024.99776,N,00340.21843,W,0.058,,010218,,,D*71
$GNRMC,215036.00,A,4024.99785,N,00340.21838,W,0.017,,010218,,,D*79
$GNRMC,215037.00,A,4024.99797,N,00340.21837,W,0.108,,010218,,,D*7B
$GNRMC,215038.00,A,4024.99805,N,00340.21839,W,0.064,,010218,,,D*75
$GNRMC,215039.00,A,4024.99815,N,00340.21842,W,0.020,,010218,,,D*79
$GNRMC,215040.00,A,4024.99819,N,00340.21846,W,0.049,,010218,,,D*70
$GNRMC,215041.00,A,4024.99828,N,00340.21854,W,0.052,,010218,,,D*7A
$GNRMC,215042.00,A,4024.99843,N,00340.21863,W,0.057,,010218,,,D*75
$GNRMC,215043.00,A,4024.99862,N,00340.21873,W,0.101,,010218,,,D*74
$GNRMC,215044.00,A,4024.99880,N,00340.21883,W,0.105,,010218,,,D*74
$GNRMC,215045.00,A,4024.99894,N,00340.21892,W,0.120,,010218,,,D*77
$GNRMC,215046.00,A,4024.99902,N,00340.21896,W,0.118,,010218,,,D*75
$GNRMC,215047.00,A,4024.99937,N,00340.21911,W,0.272,,010218,,,D*73
$GNGSA,A,3,86,74,85,75,84,,,,,,,,2.75,1.62,2.22*15
$GNRMC,215048.00,A,4024.99958,N,00340.21919,W,0.226,,010218,,,D*7C
$GNGSA,A,3,86,74,85,75,84,,,,,,,,3.18,2.18,2.32*10
$GNRMC,215049.00,A,4024.99981,N,00340.21927,W,0.258,,010218,,,D*7D
$GNGSA,A,3,86,74,85,75,84,,,,,,,,2.75,1.62,2.22*15
$GNRMC,215050.00,A,4025.00002,N,00340.21934,W,0.259,,010218,,,D*75
$GNGSA,A,3,86,74,85,75,84,,,,,,,,2.75,1.62,2.22*15
$GNRMC,215051.00,A,4025.00019,N,00340.21940,W,0.224,,010218,,,D*77
$GNGSA,A,3,86,74,85,75,84,,,,,,,,3.18,2.18,2.32*10
$GNRMC,215052.00,A,4025.00046,N,00340.21953,W,0.162,,010218,,,D*7D
$GNGSA,A,3,86,74,85,75,84,,,,,,,,2.75,1.62,2.22*15
$GNRMC,215053.00,A,4025.00065,N,00340.21963,W,0.136,,010218,,,D*7F
$GNGSA,A,3,86,74,85,75,84,,,,,,,,2.75,1.62,2.22*15
$GNRMC,215054.00,A,4025.00095,N,00340.21974,W,0.311,,010218,,,D*76
$GNGSA,A,3,86,74,85,75,84,,,,,,,,1.80,1.19,1.35*15
$GNRMC,215055.00,A,4025.00112,N,00340.21982,W,0.074,,010218,,,D*70
$GNGSA,A,3,86,74,85,75,84,,,,,,,,1.80,1.19,1.35*15
$GNRMC,215056.00,A,4025.00139,N,00340.21996,W,0.079,,010218,,,D*72
$GNGSA,A,3,86,74,85,75,84,,,,,,,,1.80,1.19,1.35*15
$GNRMC,215057.00,A,4025.00163,N,00340.22006,W,0.041,,010218,,,D*74
$GNRMC,215058.00,A,4025.00184,N,00340.22012,W,0.012,,010218,,,D*71
$GNRMC,215059.00,A,4025.00204,N,00340.22018,W,0.048,,010218,,,D*7E
$GPGSV,4,1,14,05,04,039,20,16,33,306,,18,08,142,,20,18,091,26*73
$GNRMC,215100.00,A,4025.00230,N,00340.22029,W,0.194,,010218,,,D*76
$GPGSV,4,1,14,05,04,039,21,16,33,306,,18,08,142,,20,18,091,26*72
$GNRMC,215101.00,A,4025.00255,N,00340.22037,W,0.169,,010218,,,D*79
$GPGSV,4,1,14,05,04,039,22,16,33,306,,18,08,142,,20,18,091,26*71
$GNRMC,215102.00,A,4025.00283,N,00340.22044,W,0.129,,010218,,,D*71
$GPGSV,4,1,14,05,04,039,23,16,33,306,,18,08,142,,20,18,091,26*70
$GNGLL,4025.00283,N,00340.22044,W,215102.00,A,D*68
$GNRMC,215103.00,A,4025.00310,N,00340.22050,W,0.074,,010218,,,D*77
$GPGSV,4,1,14,05,04,039,22,16,33,306,,18,08,142,,20,18,091,26*71
$GNGLL,4025.00310,N,00340.22050,W,215103.00,A,D*67
$GNRMC,215104.00,A,4025.00342,N,00340.22061,W,0.082,,010218,,,D*7C
$GPGSV,4,1,14,05,04,039,22,16,33,306,,18,08,142,,20,18,091,26*71
$GNGLL,4025.00342,N,00340.22061,W,215104.00,A,D*65
$GNRMC,215105.00,A,4025.00378,N,00340.22077,W,0.120,,010218,,,D*7A
$GNGLL,4025.00378,N,00340.22077,W,215105.00,A,D*6A
$GNRMC,215106.00,A,4025.00408,N,00340.22088,W,0.030,,010218,,,D*79
$GNRMC,215107.00,A,4025.00446,N,00340.22098,W,0.143,,010218,,,D*76
$GNRMC,215108.00,A,4025.00479,N,00340.22108,W,0.074,,010218,,,D*78
$GNRMC,215109.00,A,4025.00506,N,00340.22112,W,0.215,,010218,,,D*7E
$GNGSA,A,3,86,74,85,75,84,,,,,,,,1.78,1.18,1.34*12
$GNRMC,215110.00,A,4025.00522,N,00340.22118,W,0.098,,010218,,,D*7D
$GNGSA,A,3,86,74,85,75,84,,,,,,,,1.66,1.07,1.27*11
$GNRMC,215111.00,A,4025.00539,N,00340.22124,W,0.011,,010218,,,D*78
$GNGSA,A,3,86,74,85,75,84,,,,,,,,2.17,1.69,1.36*1C
$GNRMC,215112.00,A,4025.00554,N,00340.22127,W,0.035,,010218,,,D*75
$GNGSA,A,3,86,74,85,75,84,,,,,,,,2.17,1.69,1.36*1C
$GNRMC,215113.00,A,4025.00579,N,00340.22127,W,0.006,,010218,,,D*7B
$GNGSA,A,3,86,74,85,75,84,,,,,,,,2.69,2.21,1.52*18
$GNRMC,215114.00,A,4025.00604,N,00340.22127,W,0.036,,010218,,,D*76
$GNGSA,A,3,86,74,85,75,84,,,,,,,,2.69,2.21,1.52*18
$GNRMC,215115.00,A,4025.00620,N,00340.22126,W,0.086,,010218,,,D*7B
$GNGSA,A,3,86,74,85,75,84,,,,,,,,2.69,2.21,1.52*18
$GNRMC,215116.00,A,4025.00633,N,00340.22119,W,0.068,,010218,,,D*76
$GNGSA,A,3,86,74,85,75,84,,,,,,,,2.69,2.21,1.52*18
$GNRMC,215117.00,A,4025.00645,N,00340.22110,W,0.125,,010218,,,D*77
$GNGSA,A,3,86,74,85,75,84,,,,,,,,2.69,2.21,1.52*18
$GNRMC,215118.00,A,4025.00656,N,00340.22103,W,0.023,,010218,,,D*7F
$GNGSA,A,3,86,74,85,75,84,,,,,,,,2.69,2.21,1.52*18
$GNRMC,215119.00,A,4025.00680,N,00340.22085,W,0.029,,010218,,,D*70
$GNGSA,A,3,86,74,85,75,84,,,,,,,,2.69,2.21,1.52*18
$GNRMC,215120.00,A,4025.00679,N,00340.22082,W,0.031,,010218,,,D*72
$GNGSA,A,3,86,74,85,75,84,,,,,,,,1.96,1.36,1.42*1F
$GNRMC,215121.00,A,4025.00667,N,00340.22086,W,0.025,,010218,,,D*7D
$GNGSA,A,3,86,74,85,75,84,,,,,,,,1.96,1.36,1.42*1F
$GNRMC,215122.00,A,4025.00651,N,00340.22093,W,0.061,,010218,,,D*7F
$GNGSA,A,3,86,74,85,75,84,,,,,,,,1.96,1.36,1.42*1F
$GNRMC,215123.00,A,4025.00636,N,00340.22108,W,0.107,,010218,,,D*7D
$GNGLL,4025.00636,N,00340.22108,W,215123.00,A,D*68
$GNRMC,215124.00,A,4025.00620,N,00340.22124,W,0.065,,010218,,,D*76
$GNGLL,4025.00620,N,00340.22124,W,215124.00,A,D*66
$GNRMC,215125.00,A,4025.00601,N,00340.22139,W,0.043,,010218,,,D*7C
$GNRMC,215126.00,A,4025.00565,N,00340.22157,W,0.090,,010218,,,D*78
$GNRMC,215127.00,A,4025.00524,N,00340.22173,W,0.097,,010218,,,D*7D
$GNGLL,4025.00524,N,00340.22173,W,215127.00,A,D*60
$GNRMC,215128.00,A,4025.00495,N,00340.22194,W,0.131,,010218,,,D*7D
$GNGLL,4025.00495,N,00340.22194,W,215128.00,A,D*6D
$GNRMC,215129.00,A,4025.00466,N,00340.22214,W,0.119,,010218,,,D*71
$GPGSV,4,1,14,05,04,039,19,16,33,306,26,18,08,142,,20,18,091,09*70
$GNRMC,215130.00,A,4025.00427,N,00340.22233,W,0.132,,010218,,,D*70
$GNRMC,215131.00,A,4025.00385,N,00340.22246,W,0.100,,010218,,,D*7D
$GNRMC,215132.00,A,4025.00358,N,00340.22257,W,0.060,,010218,,,D*79
$GPGSV,4,1,14,05,04,039,14,16,33,306,27,18,08,142,,20,18,091,10*74
$GNRMC,215133.00,A,4025.00331,N,00340.22258,W,0.050,,010218,,,D*7B
$GNRMC,215134.00,A,4025.00307,N,00340.22258,W,0.035,,010218,,,D*7A
$GNGLL,4025.00307,N,00340.22258,W,215134.00,A,D*6F
$GNRMC,215135.00,A,4025.00303,N,00340.22266,W,0.085,,010218,,,D*79
$GNGLL,4025.00303,N,00340.22266,W,215135.00,A,D*67
$GNRMC,215136.00,A,4025.00300,N,00340.22274,W,0.102,,010218,,,D*74
$GNGLL,4025.00300,N,00340.22274,W,215136.00,A,D*64
$GNRMC,215137.00,A,4025.00298,N,00340.22290,W,0.089,,010218,,,D*7D
$GNRMC,215138.00,A,4025.00271,N,00340.22295,W,0.129,,010218,,,D*7B
$GNRMC,215139.00,A,4025.00247,N,00340.22301,W,0.183,,010218,,,D*73
$GNRMC,215140.00,A,4025.00237,N,00340.22316,W,0.146,,010218,,,D*75
$GNRMC,215817.00,A,4025.00254,N,00340.22411,W,0.005,,010218,,,D*7D
$GNGSA,A,3,86,74,85,75,84,,,,,,,,1.55,0.88,1.28*18
$GNRMC,215818.00,A,4025.00251,N,00340.22412,W,0.022,,010218,,,D*71
$GNGSA,A,3,86,74,85,75,84,,,,,,,,1.80,0.99,1.50*1F
$GNRMC,215819.00,A,4025.00252,N,00340.22411,W,0.059,,010218,,,D*7C
$GNRMC,215820.00,A,4025.00248,N,00340.22413,W,0.019,,010218,,,D*7B
$GNRMC,215821.00,A,4025.00242,N,00340.22415,W,0.015,,010218,,,D*7A
$GNRMC,215822.00,A,4025.00230,N,00340.22417,W,0.036,,010218,,,D*7F
$GNGSA,A,3,86,74,85,75,84,,,,,,,,1.55,0.88,1.28*18
$GNRMC,215823.00,A,4025.00221,N,00340.22417,W,0.037,,010218,,,D*7F
$GNGSA,A,3,86,74,85,75,84,,,,,,,,1.96,1.35,1.41*1F
$GNRMC,215824.00,A,4025.00207,N,00340.22420,W,0.049,,010218,,,D*71
$GNGSA,A,3,86,74,85,75,84,,,,,,,,1.55,0.88,1.28*18
$GNRMC,215825.00,A,4025.00192,N,00340.22428,W,0.051,,010218,,,D*7E
$GNRMC,215826.00,A,4025.00180,N,00340.22434,W,0.006,,010218,,,D*71
$GNGSA,A,3,86,74,85,75,84,,,,,,,,1.61,0.96,1.29*11
$GNRMC,215827.00,A,4025.00167,N,00340.22439,W,0.021,,010218,,,D*71
$GNGSA,A,3,86,74,85,75,84,,,,,,,,1.55,0.88,1.28*18
$GNRMC,215828.00,A,4025.00155,N,00340.22441,W,0.106,,010218,,,D*74
$GNRMC,215829.00,A,4025.00145,N,00340.22443,W,0.130,,010218,,,D*73
$GNRMC,215830.00,A,4025.00135,N,00340.22447,W,0.006,,010218,,,D*7C
$GNGSA,A,3,86,74,85,75,84,,,,,,,,1.60,0.97,1.27*1F
$GNRMC,215831.00,A,4025.00132,N,00340.22445,W,0.042,,010218,,,D*78
$GNRMC,215832.00,A,4025.00131,N,00340.22444,W,0.078,,010218,,,D*70
$GNGSA,A,3,86,74,85,75,84,,,,,,,,1.50,0.92,1.18*15
$GNRMC,215833.00,A,4025.00130,N,00340.22444,W,0.019,,010218,,,D*77
$GNGSA,A,3,86,74,85,75,84,,,,,,,,1.47,0.88,1.18*18
$GNRMC,215834.00,A,4025.00127,N,00340.22443,W,0.096,,010218,,,D*76
$GNGSA,A,3,86,74,85,75,84,,,,,,,,1.38,0.83,1.10*13
$GNRMC,215835.00,A,4025.00131,N,00340.22441,W,0.022,,010218,,,D*7D
$GNGSA,A,3,86,74,85,75,84,,,,,,,,1.66,1.06,1.28*1F
$GNRMC,215836.00,A,4025.00130,N,00340.22441,W,0.047,,010218,,,D*7C
$GNGSA,A,3,86,74,85,75,84,,,,,,,,1.38,0.83,1.10*13
$GNRMC,215837.00,A,4025.00125,N,00340.22442,W,0.086,,010218,,,D*77
$GNGSA,A,3,86,74,85,75,84,,,,,,,,1.38,0.83,1.10*13
$GNRMC,215838.00,A,4025.00120,N,00340.22443,W,0.029,,010218,,,D*79
$GNGSA,A,3,86,74,85,75,84,,,,,,,,1.38,0.83,1.10*13
$GNRMC,215839.00,A,4025.00121,N,00340.22445,W,0.004,,010218,,,D*70
$GNGSA,A,3,86,74,85,75,84,,,,,,,,1.53,0.96,1.19*13
$GNRMC,215840.00,A,4025.00120,N,00340.22448,W,0.017,,010218,,,D*70
$GNGSA,A,3,86,74,85,75,84,,,,,,,,1.75,1.11,1.35*17
$GNRMC,215841.00,A,4025.00114,N,00340.22451,W,0.011,,010218,,,D*78
$GNGSA,A,3,86,74,85,75,84,,,,,,,,1.47,0.94,1.13*1E
$GNRMC,215842.00,A,4025.00105,N,00340.22457,W,0.040,,010218,,,D*79
$GNGSA,A,3,86,74,85,75,84,,,,,,,,1.53,0.96,1.19*13
$GNRMC,215843.00,A,4025.00094,N,00340.22464,W,0.063,,010218,,,D*70
$GNGSA,A,3,86,74,85,75,84,,,,,,,,1.66,1.04,1.29*1C
$GNRMC,215844.00,A,4025.00087,N,00340.22468,W,0.053,,010218,,,D*7A
$GNGSA,A,3,86,74,85,75,84,,,,,,,,2.58,2.09,1.52*10
$GNRMC,215845.00,A,4025.00083,N,00340.22470,W,0.011,,010218,,,D*70
$GNGSA,A,3,86,74,85,75,84,,,,,,,,1.66,1.04,1.29*1C
$GNRMC,215846.00,A,4025.00078,N,00340.22473,W,0.024,,010218,,,D*72
$GNGSA,A,3,86,74,85,75,84,,,,,,,,1.66,1.04,1.29*1C
$GNRMC,215847.00,A,4025.00073,N,00340.22475,W,0.031,,010218,,,D*7A
$GNGSA,A,3,86,74,85,75,84,,,,,,,,1.61,0.96,1.29*11
$GNRMC,215848.00,A,4025.00064,N,00340.22477,W,0.061,,010218,,,D*74
$GNGSA,A,3,86,74,85,75,84,,,,,,,,1.44,0.85,1.16*18
$GNRMC,215849.00,A,4025.00062,N,00340.22476,W,0.099,,010218,,,D*75
$GNGSA,A,3,86,74,85,75,84,,,,,,,,1.63,0.99,1.29*1C
$GNRMC,215850.00,A,4025.00063,N,00340.22477,W,0.029,,010218,,,D*76
$GNRMC,215851.00,A,4025.00061,N,00340.22478,W,0.026,,010218,,,D*75
$GNRMC,215852.00,A,4025.00058,N,00340.22477,W,0.020,,010218,,,D*75
$GNRMC,215853.00,A,4025.00050,N,00340.22477,W,0.019,,010218,,,D*76
$GNGSA,A,3,86,74,85,75,84,,,,,,,,1.44,0.85,1.16*18
$GNRMC,215854.00,A,4025.00050,N,00340.22477,W,0.014,,010218,,,D*7C
$GNGSA,A,3,86,74,85,75,84,,,,,,,,1.66,1.04,1.29*1C
$GNRMC,215855.00,A,4025.00052,N,00340.22477,W,0.049,,010218,,,D*77
$GNGSA,A,3,86,74,85,75,84,,,,,,,,1.44,0.85,1.16*18
$GNRMC,215856.00,A,4025.00058,N,00340.22472,W,0.020,,010218,,,D*74
$GNGSA,A,3,86,74,85,75,84,,,,,,,,1.44,0.85,1.16*18
$GNRMC,215857.00,A,4025.00055,N,00340.22469,W,0.010,,010218,,,D*71
$GNGSA,A,3,86,74,85,75,84,,,,,,,,1.44,0.85,1.16*18
$GNRMC,215858.00,A,4025.00051,N,00340.22468,W,0.029,,010218,,,D*71
$GNGSA,A,3,86,74,85,75,84,,,,,,,,1.58,0.92,1.29*1F
$GNRMC,215859.00,A,4025.00041,N,00340.22468,W,0.021,,010218,,,D*79
$GNGSA,A,3,86,74,85,75,84,,,,,,,,1.44,0.85,1.16*18
$GNRMC,215900.00,A,4025.00038,N,00340.22467,W,0.013,,010218,,,D*74
$GNGSA,A,3,86,74,85,75,84,,,,,,,,1.50,0.94,1.17*1C
$GNRMC,215901.00,A,4025.00031,N,00340.22468,W,0.036,,010218,,,D*74
$GNGSA,A,3,86,74,85,75,84,,,,,,,,1.44,0.85,1.16*18
$GNRMC,215902.00,A,4025.00031,N,00340.22469,W,0.032,,010218,,,D*72
$GNGSA,A,3,86,74,85,75,84,,,,,,,,1.76,1.13,1.35*16
$GNRMC,215903.00,A,4025.00032,N,00340.22465,W,0.018,,010218,,,D*74
$GNGSA,A,3,86,74,85,75,84,,,,,,,,1.44,0.85,1.16*18
$GNRMC,215904.00,A,4025.00027,N,00340.22462,W,0.115,,010218,,,D*7C
$GNGSA,A,3,86,74,85,75,84,,,,,,,,1.44,0.85,1.16*18
$GNRMC,215905.00,A,4025.00022,N,00340.22461,W,0.138,,010218,,,D*74
$GNGSA,A,3,86,74,85,75,84,,,,,,,,1.44,0.85,1.16*18
$GNRMC,215906.00,A,4025.00014,N,00340.22461,W,0.067,,010218,,,D*79
$GNGSA,A,3,86,74,85,75,84,,,,,,,,1.53,0.85,1.27*1C
$GNRMC,215907.00,A,4025.00015,N,00340.22457,W,0.049,,010218,,,D*70
$GNGSA,A,3,86,74,85,75,84,,,,,,,,1.63,0.99,1.29*1C
$GNRMC,215908.00,A,4025.00010,N,00340.22456,W,0.016,,010218,,,D*71
$GNGSA,A,3,86,74,85,75,84,,,,,,,,1.41,0.81,1.16*19
$GNRMC,215909.00,A,4025.00007,N,00340.22456,W,0.112,,010218,,,D*73
$GNRMC,215910.00,A,4025.00002,N,00340.22457,W,0.089,,010218,,,D*7C
$GNGSA,A,3,86,74,85,75,84,,,,,,,,1.44,0.85,1.16*18
$GNRMC,215911.00,A,4024.99999,N,00340.22458,W,0.019,,010218,,,D*71
$GNGSA,A,3,86,74,85,75,84,,,,,,,,1.70,1.02,1.36*13
$GNRMC,215912.00,A,4024.99997,N,00340.22459,W,0.031,,010218,,,D*77
$GNGSA,A,3,86,74,85,75,84,,,,,,,,1.49,0.91,1.18*1E
$GNRMC,215913.00,A,4024.99997,N,00340.22459,W,0.066,,010218,,,D*74
$GNGSA,A,3,86,74,85,75,84,,,,,,,,1.44,0.91,1.12*19
$GNRMC,215914.00,A,4025.00003,N,00340.22452,W,0.020,,010218,,,D*7F
$GNGSA,A,3,86,74,85,75,84,,,,,,,,1.47,0.94,1.13*1E
$GNRMC,215915.00,A,4025.00006,N,00340.22448,W,0.019,,010218,,,D*7A
$GNGSA,A,3,86,74,85,75,84,,,,,,,,1.59,0.97,1.25*17
$GNRMC,215916.00,A,4025.00002,N,00340.22450,W,0.065,,010218,,,D*7F
$GNGSA,A,3,86,74,85,75,84,,,,,,,,1.38,0.83,1.10*13
$GNRMC,215917.00,A,4024.99995,N,00340.22453,W,0.054,,010218,,,D*79
$GNGSA,A,3,86,74,85,75,84,,,,,,,,1.41,0.87,1.11*18
$GNRMC,215918.00,A,4024.99990,N,00340.22456,W,0.008,,010218,,,D*7F
$GNGSA,A,3,86,74,85,75,84,,,,,,,,1.38,0.83,1.10*13
$GNRMC,215919.00,A,4024.99991,N,00340.22458,W,0.029,,010218,,,D*72
$GNGSA,A,3,86,74,85,75,84,,,,,,,,1.66,1.06,1.28*1F
$GNRMC,215920.00,A,4024.99993,N,00340.22461,W,0.106,,010218,,,D*7C
$GNGSA,A,3,86,74,85,75,84,,,,,,,,1.55,1.00,1.19*1B
$GNRMC,215921.00,A,4024.99991,N,00340.22465,W,0.131,,010218,,,D*7F
$GNGSA,A,3,86,74,85,75,84,,,,,,,,1.52,0.96,1.18*13
$GNRMC,215922.00,A,4024.99991,N,00340.22468,W,0.007,,010218,,,D*75
$GNGSA,A,3,86,74,85,75,84,,,,,,,,1.52,0.96,1.18*13
$GNRMC,215923.00,A,4024.99988,N,00340.22474,W,0.037,,010218,,,D*72
$GNGSA,A,3,86,74,85,75,84,,,,,,,,1.52,0.96,1.18*13
$GNRMC,215924.00,A,4024.99990,N,00340.22478,W,0.020,,010218,,,D*76
$GNGSA,A,3,86,74,85,75,84,,,,,,,,1.85,1.27,1.35*1D
$GNRMC,215925.00,A,4024.99988,N,00340.22483,W,0.056,,010218,,,D*7B
$GNGSA,A,3,86,74,85,75,84,,,,,,,,1.52,0.96,1.18*13
$GNRMC,215926.00,A,4024.99989,N,00340.22487,W,0.046,,010218,,,D*7C
$GNGSA,A,3,86,74,85,75,84,,,,,,,,1.52,0.96,1.18*13
$GNRMC,215927.00,A,4024.99993,N,00340.22496,W,0.031,,010218,,,D*76
$GNGSA,A,3,86,74,85,75,84,,,,,,,,1.52,0.96,1.18*13
$GNRMC,215928.00,A,4024.99993,N,00340.22506,W,0.135,,010218,,,D*74
$GNGSA,A,3,86,74,85,75,84,,,,,,,,1.52,0.96,1.18*13
$GNRMC,215929.00,A,4024.99990,N,00340.22515,W,0.080,,010218,,,D*7B
$GNGSA,A,3,86,74,85,75,84,,,,,,,,1.52,0.96,1.18*13
$GNRMC,215930.00,A,4024.99991,N,00340.22526,W,0.027,,010218,,,D*7F
$GNGSA,A,3,86,74,85,75,84,,,,,,,,1.85,1.27,1.35*1D
$GNRMC,215931.00,A,4024.99990,N,00340.22536,W,0.030,,010218,,,D*78
$GNGSA,A,3,86,74,85,75,84,,,,,,,,1.55,1.00,1.19*1B
$GNRMC,215932.00,A,4024.99992,N,00340.22544,W,0.073,,010218,,,D*7B
$GNGSA,A,3,86,74,85,75,84,,,,,,,,1.55,1.00,1.19*1B
$GNRMC,215933.00,A,4024.99993,N,00340.22552,W,0.039,,010218,,,D*72
$GNGSA,A,3,86,74,85,75,84,,,,,,,,1.55,1.00,1.19*1B
$GNRMC,215934.00,A,4024.99994,N,00340.22559,W,0.043,,010218,,,D*74
$GNGSA,A,3,86,74,85,75,84,,,,,,,,1.55,1.00,1.19*1B
$GNRMC,215935.00,A,4024.99990,N,00340.22567,W,0.032,,010218,,,D*7A
$GNGSA,A,3,86,74,85,75,84,,,,,,,,1.51,0.93,1.18*15
$GNRMC,215936.00,A,4024.99991,N,00340.22579,W,0.011,,010218,,,D*76
$GNGSA,A,3,86,74,85,75,84,,,,,,,,1.51,0.93,1.18*15
$GNRMC,215937.00,A,4024.99992,N,00340.22588,W,0.019,,010218,,,D*72
$GNGSA,A,3,86,74,85,75,84,,,,,,,,1.51,0.93,1.18*15
$GNRMC,215938.00,A,4024.99993,N,00340.22595,W,0.056,,010218,,,D*7B
$GNGSA,A,3,86,74,85,75,84,,,,,,,,1.55,1.00,1.19*1B
$GNRMC,215939.00,A,4024.99993,N,00340.22603,W,0.036,,010218,,,D*70
$GNGSA,A,3,86,74,85,75,84,,,,,,,,1.51,0.93,1.18*15
$GNRMC,215940.00,A,4024.99989,N,00340.22609,W,0.058,,010218,,,D*77
$GNGSA,A,3,86,74,85,75,84,,,,,,,,1.51,0.93,1.18*15
$GNRMC,215941.00,A,4024.99993,N,00340.22614,W,0.035,,010218,,,D*7A
$GNGSA,A,3,86,74,85,75,84,,,,,,,,1.55,1.00,1.19*1B
$GNRMC,215942.00,A,4024.99998,N,00340.22617,W,0.004,,010218,,,D*73
$GNGSA,A,3,86,74,85,75,84,,,,,,,,1.51,0.93,1.18*15
$GNRMC,215943.00,A,4025.00002,N,00340.22617,W,0.015,,010218,,,D*79
$GNGSA,A,3,86,74,85,75,84,,,,,,,,1.51,0.93,1.18*15
$GNRMC,215944.00,A,4025.00010,N,00340.22616,W,0.015,,010218,,,D*7C
$GNGSA,A,3,86,74,85,75,84,,,,,,,,2.18,1.56,1.52*1D
$GNRMC,215945.00,A,4025.00013,N,00340.22614,W,0.008,,010218,,,D*70
$GNGSA,A,3,86,74,85,75,84,,,,,,,,1.75,1.10,1.37*14
$GNRMC,215946.00,A,4025.00017,N,00340.22611,W,0.012,,010218,,,D*79
$GNGSA,A,3,86,74,85,75,84,,,,,,,,1.84,1.18,1.41*13
$GNRMC,215947.00,A,4025.00025,N,00340.22607,W,0.006,,010218,,,D*7B
$GNGSA,A,3,86,74,85,75,84,,,,,,,,2.57,2.07,1.52*11
$GNRMC,215948.00,A,4025.00025,N,00340.22602,W,0.074,,010218,,,D*74
$GNGSA,A,3,86,74,85,75,84,,,,,,,,1.84,1.18,1.41*13
$GNRMC,215949.00,A,4025.00026,N,00340.22596,W,0.060,,010218,,,D*7D
$GNGSA,A,3,86,74,85,75,84,,,,,,,,1.84,1.18,1.41*13
$GNRMC,215950.00,A,4025.00029,N,00340.22592,W,0.108,,010218,,,D*71
$GNGSA,A,3,86,74,85,75,84,,,,,,,,1.84,1.18,1.41*13
$GNRMC,215951.00,A,4025.00034,N,00340.22584,W,0.059,,010218,,,D*7E
$GNGSA,A,3,86,74,85,75,84,,,,,,,,2.18,1.56,1.52*1D
$GNRMC,215952.00,A,4025.00037,N,00340.22579,W,0.015,,010218,,,D*74
$GNGSA,A,3,86,74,85,75,84,,,,,,,,1.75,1.10,1.37*14
$GNRMC,215953.00,A,4025.00038,N,00340.22574,W,0.054,,010218,,,D*72
$GNGSA,A,3,86,74,85,75,84,,,,,,,,1.75,1.10,1.37*14
$GNRMC,215954.00,A,4025.00039,N,00340.22569,W,0.029,,010218,,,D*72
$GNGSA,A,3,86,74,85,75,84,,,,,,,,1.75,1.10,1.37*14
$GNRMC,215955.00,A,4025.00041,N,00340.22566,W,0.033,,010218,,,D*78
$GNGSA,A,3,86,74,85,75,84,,,,,,,,2.18,1.56,1.52*1D
$GNRMC,215956.00,A,4025.00039,N,00340.22564,W,0.049,,010218,,,D*7B
$GNGSA,A,3,86,74,85,75,84,,,,,,,,2.18,1.56,1.52*1D
$GNRMC,215957.00,A,4025.00042,N,00340.22561,W,0.050,,010218,,,D*7B
$GNGSA,A,3,86,74,85,75,84,,,,,,,,2.18,1.56,1.52*1D
$GNRMC,215958.00,A,4025.00041,N,00340.22558,W,0.018,,010218,,,D*71
$GNGSA,A,3,86,74,85,75,84,,,,,,,,2.18,1.56,1.52*1D
$GNRMC,215959.00,A,4025.00042,N,00340.22556,W,0.025,,010218,,,D*73
$GNGSA,A,3,86,74,85,75,84,,,,,,,,2.18,1.56,1.52*1D
$GNRMC,220000.00,A,4025.00043,N,00340.22554,W,0.018,,010218,,,D*7D
$GNGSA,A,3,86,74,85,75,84,,,,,,,,2.18,1.56,1.52*1D
$GNRMC,220001.00,A,4025.00041,N,00340.22553,W,0.016,,010218,,,D*77
$GNGSA,A,3,86,74,85,75,84,,,,,,,,2.18,1.56,1.52*1D
$GNRMC,220002.00,A,4025.00039,N,00340.22551,W,0.024,,010218,,,D*78
$GNGSA,A,3,86,74,85,75,84,,,,,,,,1.95,1.24,1.50*1C
$GNRMC,220003.00,A,4025.00038,N,00340.22547,W,0.028,,010218,,,D*73
$GNGSA,A,3,86,74,85,75,84,,,,,,,,1.95,1.24,1.50*1C
$GNRMC,220004.00,A,4025.00032,N,00340.22546,W,0.061,,010218,,,D*72
$GNGSA,A,3,86,74,85,75,84,,,,,,,,1.95,1.24,1.50*1C
$GNRMC,220005.00,A,4025.00028,N,00340.22545,W,0.007,,010218,,,D*7B
$GNGSA,A,3,86,74,85,75,84,,,,,,,,1.95,1.24,1.50*1C
$GNRMC,220006.00,A,4025.00028,N,00340.22545,W,0.039,,010218,,,D*75
$GNGSA,A,3,86,74,85,75,84,,,,,,,,2.18,1.56,1.52*1D
$GNRMC,220007.00,A,4025.00027,N,00340.22544,W,0.008,,010218,,,D*78
$GNGSA,A,3,86,74,85,75,84,,,,,,,,1.95,1.24,1.50*1C
$GNRMC,220008.00,A,4025.00027,N,00340.22544,W,0.016,,010218,,,D*78
$GNGSA,A,3,86,74,85,75,84,,,,,,,,1.95,1.24,1.50*1C
$GNRMC,220009.00,A,4025.00025,N,00340.22545,W,0.009,,010218,,,D*74
$GNGSA,A,3,86,74,85,75,84,,,,,,,,1.95,1.24,1.50*1C
$GNRMC,220010.00,A,4025.00026,N,00340.22544,W,0.023,,010218,,,D*76
$GNGSA,A,3,86,74,85,75,84,,,,,,,,2.18,1.56,1.52*1D
$GNRMC,220011.00,A,4025.00029,N,00340.22544,W,0.051,,010218,,,D*7D
$GNGSA,A,3,86,74,85,75,84,,,,,,,,2.18,1.56,1.52*1D
$GNRMC,220012.00,A,4025.00030,N,00340.22544,W,0.044,,010218,,,D*72
$GNGSA,A,3,86,74,85,75,84,,,,,,,,2.18,1.56,1.52*1D
$GNRMC,220013.00,A,4025.00036,N,00340.22543,W,0.087,,010218,,,D*7D
$GNGSA,A,3,86,74,85,75,84,,,,,,,,2.56,2.06,1.52*11
$GNRMC,220014.00,A,4025.00041,N,00340.22543,W,0.032,,010218,,,D*74
$GNGSA,A,3,86,74,85,75,84,,,,,,,,2.18,1.56,1.52*1D
$GNRMC,220015.00,A,4025.00047,N,00340.22544,W,0.046,,010218,,,D*77
$GNRMC,220016.00,A,4025.00050,N,00340.22545,W,0.048,,010218,,,D*7D
$GNRMC,220017.00,A,4025.00051,N,00340.22546,W,0.077,,010218,,,D*72
$GNRMC,220018.00,A,4025.00055,N,00340.22548,W,0.073,,010218,,,D*73
$GNRMC,220019.00,A,4025.00058,N,00340.22550,W,0.053,,010218,,,D*74
$GNRMC,220020.00,A,4025.00063,N,00340.22554,W,0.092,,010218,,,D*7F
$GNRMC,220021.00,A,4025.00069,N,00340.22558,W,0.128,,010218,,,D*78
$GNRMC,220022.00,A,4025.00074,N,00340.22561,W,0.056,,010218,,,D*75
$GPGSV,4,1,14,05,03,036,,16,36,309,,18,11,139,,20,20,087,12*7C
$GLGSV,3,3,09,87,00,229,*5A
$GNRMC,220023.00,A,4025.00080,N,00340.22564,W,0.099,,010218,,,D*79
$GNRMC,220024.00,A,4025.00084,N,00340.22565,W,0.004,,010218,,,D*7F
$GNRMC,220025.00,A,4025.00086,N,00340.22566,W,0.024,,010218,,,D*7D
$GNRMC,220026.00,A,4025.00094,N,00340.22565,W,0.065,,010218,,,D*7B
$GNRMC,220027.00,A,4025.00102,N,00340.22563,W,0.090,,010218,,,D*78
$GPGSV,4,1,14,05,03,036,,16,36,309,21,18,11,139,,20,20,087,10*7D
$GLGSV,3,3,09,87,00,229,*5A
$GNRMC,220028.00,A,4025.00110,N,00340.22564,W,0.011,,010218,,,D*7A
$GPGSV,4,1,14,05,03,036,,16,36,309,21,18,11,139,,20,20,087,10*7D
$GLGSV,3,3,09,87,00,229,*5A
$GNRMC,220029.00,A,4025.00115,N,00340.22566,W,0.037,,010218,,,D*78
$GNRMC,220030.00,A,4025.00119,N,00340.22568,W,0.032,,010218,,,D*77
$GNRMC,220031.00,A,4025.00127,N,00340.22568,W,0.018,,010218,,,D*73
$GNRMC,220032.00,A,4025.00131,N,00340.22571,W,0.051,,010218,,,D*72
$GNRMC,220033.00,A,4025.00136,N,00340.22574,W,0.071,,010218,,,D*73
$GNRMC,220034.00,A,4025.00141,N,00340.22578,W,0.043,,010218,,,D*79
$GNRMC,220035.00,A,4025.00144,N,00340.22581,W,0.004,,010218,,,D*78
$GNRMC,220036.00,A,4025.00144,N,00340.22586,W,0.046,,010218,,,D*7A
$GNRMC,220037.00,A,4025.00145,N,00340.22590,W,0.023,,010218,,,D*7E
$GPGSV,4,1,14,05,03,036,,16,36,309,28,18,11,139,,20,20,087,10*74
$GNRMC,220038.00,A,4025.00145,N,00340.22595,W,0.028,,010218,,,D*7F
$GPGSV,4,1,14,05,03,036,,16,36,309,28,18,11,139,,20,20,087,12*76
$GNRMC,220039.00,A,4025.00158,N,00340.22594,W,0.026,,010218,,,D*7D
$GPGSV,4,1,14,05,03,036,,16,36,309,29,18,11,139,,20,20,087,14*71
$GNRMC,220040.00,A,4025.00167,N,00340.22595,W,0.100,,010218,,,D*7B
$GPGSV,4,1,14,05,03,036,,16,36,309,29,18,11,139,,20,20,087,12*77
$GNRMC,220041.00,A,4025.00175,N,00340.22597,W,0.061,,010218,,,D*7D
$GPGSV,4,1,14,05,03,036,,16,36,309,29,18,11,139,,20,20,087,18*7D
$GNRMC,220042.00,A,4025.00181,N,00340.22599,W,0.068,,010218,,,D*72
$GPGSV,4,1,14,05,03,036,,16,36,309,29,18,11,139,,20,20,087,17*72
$GLGSV,3,3,09,87,00,229,*5A
$GNRMC,220043.00,A,4025.00191,N,00340.22601,W,0.043,,010218,,,D*79
$GPGSV,4,1,14,05,03,036,,16,36,309,29,18,11,139,,20,20,087,17*72
$GLGSV,3,3,09,87,00,229,*5A
$GNRMC,220044.00,A,4025.00191,N,00340.22604,W,0.058,,010218,,,D*71
$GPGSV,4,1,14,05,03,036,,16,36,309,29,18,11,139,,20,20,087,16*73
$GLGSV,3,3,09,87,00,229,*5A
$GNRMC,220045.00,A,4025.00193,N,00340.22606,W,0.048,,010218,,,D*71
$GNGSA,A,3,86,74,85,75,,,,,,,,,1.76,1.12,1.35*1B
$GNRMC,220046.00,A,4025.00195,N,00340.22609,W,0.045,,010218,,,D*76
$GNGSA,A,3,86,74,85,75,,,,,,,,,1.95,1.35,1.41*10
$GNRMC,220047.00,A,4025.00210,N,00340.22603,W,0.027,,010218,,,D*77
$GNGSA,A,3,86,74,85,75,,,,,,,,,1.76,1.12,1.35*1B
$GNRMC,220048.00,A,4025.00210,N,00340.22606,W,0.026,,010218,,,D*7C
$GNGSA,A,3,86,74,85,75,,,,,,,,,1.76,1.12,1.35*1B
$GNRMC,220049.00,A,4025.00220,N,00340.22603,W,0.069,,010218,,,D*70
$GNGSA,A,3,86,74,85,75,,,,,,,,,1.95,1.35,1.41*10
$GNRMC,220050.00,A,4025.00223,N,00340.22604,W,0.023,,010218,,,D*72
$GNGSA,A,3,86,74,85,75,,,,,,,,,1.76,1.12,1.35*1B
$GNRMC,220051.00,A,4025.00225,N,00340.22607,W,0.020,,010218,,,D*75
$GNGSA,A,3,86,74,85,75,,,,,,,,,1.76,1.12,1.35*1B
$GNRMC,220052.00,A,4025.00226,N,00340.22610,W,0.002,,010218,,,D*73
$GNGSA,A,3,86,74,85,75,84,,,,,,,,1.95,1.35,1.41*1C
$GNRMC,220053.00,A,4025.00229,N,00340.22613,W,0.022,,010218,,,D*7C
$GNGSA,A,3,86,74,85,75,84,,,,,,,,1.76,1.12,1.35*17
$GNRMC,220054.00,A,4025.00234,N,00340.22616,W,0.033,,010218,,,D*72
$GNGSA,A,3,86,74,85,75,84,,,,,,,,2.03,1.49,1.38*15
$GNRMC,220055.00,A,4025.00233,N,00340.22621,W,0.023,,010218,,,D*71
$GNGSA,A,3,86,74,85,75,84,,,,,,,,2.55,2.04,1.52*10
$GNRMC,220056.00,A,4025.00231,N,00340.22627,W,0.029,,010218,,,D*7C
$GNGSA,A,3,86,74,85,75,84,,,,,,,,2.03,1.49,1.38*15
$GNRMC,220057.00,A,4025.00225,N,00340.22632,W,0.023,,010218,,,D*76
$GLGSV,3,3,09,87,00,229,*5A
$GNRMC,220058.00,A,4025.00218,N,00340.22636,W,0.036,,010218,,,D*77
$GLGSV,3,3,09,87,00,229,*5A
$GNRMC,220059.00,A,4025.00208,N,00340.22642,W,0.010,,010218,,,D*70
$GLGSV,3,3,09,87,00,229,*5A
$GNRMC,220100.00,A,4025.00196,N,00340.22646,W,0.020,,010218,,,D*7E
$GLGSV,3,3,09,87,00,229,*5A
$GNRMC,220101.00,A,4025.00185,N,00340.22650,W,0.046,,010218,,,D*7A
$GLGSV,3,3,09,87,00,229,*5A
$GNRMC,220102.00,A,4025.00173,N,00340.22653,W,0.005,,010218,,,D*74
$GPGSV,4,1,14,05,03,035,,16,36,309,,18,11,139,,20,20,087,16*7B
$GNRMC,220103.00,A,4025.00168,N,00340.22653,W,0.066,,010218,,,D*7A
$GLGSV,3,3,09,87,00,229,*5A
$GNRMC,220104.00,A,4025.00161,N,00340.22654,W,0.044,,010218,,,D*73
$GLGSV,3,3,09,87,00,229,*5A
$GNRMC,220105.00,A,4025.00154,N,00340.22654,W,0.032,,010218,,,D*75
$GLGSV,3,3,09,87,00,229,*5A
$GNRMC,220106.00,A,4025.00145,N,00340.22654,W,0.056,,010218,,,D*74
$GLGSV,3,3,09,87,00,229,*5A
$GNRMC,220107.00,A,4025.00133,N,00340.22655,W,0.114,,010218,,,D*72
$GLGSV,3,3,09,87,00,229,*5A
$GNRMC,220108.00,A,4025.00122,N,00340.22656,W,0.035,,010218,,,D*7C
$GLGSV,3,3,09,87,00,229,*5A
$GNRMC,220109.00,A,4025.00110,N,00340.22658,W,0.048,,010218,,,D*78
$GLGSV,3,3,09,87,00,229,*5A
$GNRMC,220110.00,A,4025.00099,N,00340.22659,W,0.017,,010218,,,D*7B
$GLGSV,3,3,09,87,00,229,*5A
$GNRMC,220111.00,A,4025.00087,N,00340.22660,W,0.018,,010218,,,D*70
$GNRMC,220112.00,A,4025.00075,N,00340.22659,W,0.040,,010218,,,D*79
$GNRMC,220113.00,A,4025.00072,N,00340.22654,W,0.074,,010218,,,D*75
$GNRMC,220114.00,A,4025.00068,N,00340.22649,W,0.034,,010218,,,D*71
$GNRMC,220115.00,A,4025.00066,N,00340.22645,W,0.025,,010218,,,D*72
$GNRMC,220116.00,A,4025.00063,N,00340.22642,W,0.026,,010218,,,D*70
$GNRMC,220117.00,A,4025.00059,N,00340.22638,W,0.090,,010218,,,D*78
$GNRMC,220118.00,A,4025.00060,N,00340.22632,W,0.048,,010218,,,D*72
$GPGSV,4,1,14,05,03,035,,16,37,309,,18,11,139,,20,20,087,12*7E
$GNRMC,220119.00,A,4025.00061,N,00340.22628,W,0.007,,010218,,,D*72
$GPGSV,4,1,14,05,03,035,,16,37,309,,18,11,139,,20,20,087,13*7F
$GNRMC,220120.00,A,4025.00060,N,00340.22622,W,0.025,,010218,,,D*73
$GPGSV,4,1,14,05,03,035,,16,37,309,,18,11,139,,20,20,087,12*7E
$GNRMC,220121.00,A,4025.00059,N,00340.22618,W,0.035,,010218,,,D*70
$GNRMC,220122.00,A,4025.00057,N,00340.22612,W,0.131,,010218,,,D*72
$GPGSV,4,1,14,05,03,035,,16,37,309,,18,11,139,,20,20,087,07*7A
$GNRMC,220123.00,A,4025.00055,N,00340.22607,W,0.079,,010218,,,D*78
$GLGSV,3,3,09,87,00,229,*5A
$GNRMC,220124.00,A,4025.00062,N,00340.22597,W,0.008,,010218,,,D*77
$GLGSV,3,3,09,87,00,229,*5A
$GNRMC,220125.00,A,4025.00065,N,00340.22589,W,0.009,,010218,,,D*7F
$GLGSV,3,3,09,87,00,229,*5A
$GNRMC,220126.00,A,4025.00070,N,00340.22582,W,0.015,,010218,,,D*7E
$GLGSV,3,3,09,87,00,229,*5A
$GNRMC,220127.00,A,4025.00077,N,00340.22574,W,0.026,,010218,,,D*71
$GNRMC,220128.00,A,4025.00086,N,00340.22565,W,0.032,,010218,,,D*75
$GLGSV,3,3,09,87,00,229,*5A
$GNRMC,220129.00,A,4025.00094,N,00340.22558,W,0.061,,010218,,,D*7F
$GLGSV,3,3,09,87,00,229,*5A
$GNRMC,220130.00,A,4025.00104,N,00340.22548,W,0.013,,010218,,,D*7B
$GLGSV,3,3,09,87,00,229,*5A
$GNRMC,220131.00,A,4025.00109,N,00340.22542,W,0.071,,010218,,,D*79
$GLGSV,3,3,09,87,00,229,*5A
$GNRMC,220132.00,A,4025.00111,N,00340.22537,W,0.169,,010218,,,D*79
$GLGSV,3,3,09,87,00,229,*5A
$GNRMC,220133.00,A,4025.00119,N,00340.22530,W,0.159,,010218,,,D*74
$GLGSV,3,3,09,87,00,229,*5A
$GNRMC,220134.00,A,4025.00121,N,00340.22525,W,0.014,,010218,,,D*74
$GLGSV,3,3,09,87,00,229,*5A
$GNRMC,220135.00,A,4025.00126,N,00340.22520,W,0.018,,010218,,,D*7B
$GLGSV,3,3,09,87,00,229,*5A
$GNRMC,220136.00,A,4025.00132,N,00340.22514,W,0.005,,010218,,,D*76
$GNGSA,A,3,86,74,85,75,84,,,,,,,,1.74,1.10,1.35*17
$GNRMC,220137.00,A,4025.00145,N,00340.22506,W,0.029,,010218,,,D*7A
$GNGSA,A,3,86,74,85,75,84,,,,,,,,1.79,1.16,1.37*1E
$GNRMC,220138.00,A,4025.00157,N,00340.22499,W,0.024,,010218,,,D*7C
$GNRMC,220139.00,A,4025.00159,N,00340.22497,W,0.067,,010218,,,D*7A
$GNGSA,A,3,86,74,85,75,84,,,,,,,,1.52,0.87,1.24*1C
$GNRMC,220140.00,A,4025.00160,N,00340.22496,W,0.021,,010218,,,D*7D
$GNGSA,A,3,86,74,85,75,84,,,,,,,,1.63,0.99,1.30*14
$GNRMC,220141.00,A,4025.00165,N,00340.22493,W,0.018,,010218,,,D*76
$GNGSA,A,3,86,74,85,75,84,,,,,,,,1.59,0.97,1.26*14
$GNRMC,220142.00,A,4025.00165,N,00340.22493,W,0.027,,010218,,,D*79
$GNGSA,A,3,86,74,85,75,,,,,,,,,1.52,0.87,1.24*10
$GLGSV,3,3,09,87,00,229,*5A
$GNRMC,220143.00,A,4025.00163,N,00340.22496,W,0.032,,010218,,,D*7F
$GNGSA,A,3,86,74,85,75,,,,,,,,,1.58,0.91,1.29*10
$GLGSV,3,3,09,87,00,229,*5A
$GNRMC,220144.00,A,4025.00159,N,00340.22500,W,0.041,,010218,,,D*7B
$GNGSA,A,3,86,74,85,75,,,,,,,,,1.58,0.91,1.29*10
$GLGSV,3,3,09,87,00,229,*5A
$GNRMC,220145.00,A,4025.00169,N,00340.22495,W,0.036,,010218,,,D*74
$GNGSA,A,3,86,74,85,75,84,,,,,,,,1.94,1.23,1.50*1A
$GNRMC,220146.00,A,4025.00175,N,00340.22491,W,0.030,,010218,,,D*78
$GNGSA,A,3,86,74,85,75,84,,,,,,,,1.69,1.02,1.35*18
$GNRMC,220147.00,A,4025.00175,N,00340.22490,W,0.044,,010218,,,D*7B
$GNGSA,A,3,86,74,85,75,,,,,,,,,1.58,0.91,1.29*10
$GLGSV,3,3,09,87,00,229,*5A
$GNRMC,220148.00,A,4025.00205,N,00340.22473,W,0.034,,010218,,,D*7A
$GNGSA,A,3,86,74,85,75,84,,,,,,,,1.38,0.82,1.11*13
$GNRMC,220149.00,A,4025.00203,N,00340.22475,W,0.022,,010218,,,D*7C
$GNGSA,A,3,86,74,85,75,84,,,,,,,,1.38,0.82,1.11*13
$GNRMC,220150.00,A,4025.00200,N,00340.22477,W,0.015,,010218,,,D*71
$GNGSA,A,3,86,74,85,75,84,,,,,,,,1.62,0.96,1.31*1B
$GNRMC,220151.00,A,4025.00195,N,00340.22480,W,0.020,,010218,,,D*71
$GNGSA,A,3,86,74,85,75,84,,,,,,,,1.44,0.85,1.17*19
$GNRMC,220152.00,A,4025.00204,N,00340.22477,W,0.014,,010218,,,D*76
$GNGSA,A,3,86,74,85,75,84,,,,,,,,1.50,0.93,1.17*1B
$GNRMC,220153.00,A,4025.00218,N,00340.22470,W,0.008,,010218,,,D*70
$GNGSA,A,3,86,74,85,75,84,,,,,,,,1.62,0.96,1.31*1B
$GNRMC,220154.00,A,4025.00231,N,00340.22467,W,0.024,,010218,,,D*74
$GNGSA,A,3,86,74,85,75,84,,,,,,,,1.54,0.87,1.27*19
$GNRMC,220155.00,A,4025.00243,N,00340.22464,W,0.010,,010218,,,D*74
$GNGSA,A,3,86,74,85,75,84,,,,,,,,1.54,0.87,1.27*19
$GNRMC,220156.00,A,4025.00251,N,00340.22464,W,0.026,,010218,,,D*71
$GNGSA,A,3,86,74,85,75,84,,,,,,,,1.70,0.99,1.38*1E
$GNRMC,220157.00,A,4025.00261,N,00340.22464,W,0.025,,010218,,,D*70
$GNGSA,A,3,86,74,85,75,84,,,,,,,,1.54,0.87,1.27*19
$GNRMC,220158.00,A,4025.00271,N,00340.22463,W,0.020,,010218,,,D*7C
$GNGSA,A,3,86,74,85,75,84,,,,,,,,1.54,0.87,1.27*19
$GNRMC,220159.00,A,4025.00278,N,00340.22460,W,0.025,,010218,,,D*72
$GNGSA,A,3,86,74,85,75,84,,,,,,,,1.70,0.99,1.38*1E
$GNRMC,220200.00,A,4025.00283,N,00340.22458,W,0.036,,010218,,,D*70
$GNGSA,A,3,86,74,85,75,84,,,,,,,,1.54,0.87,1.27*19
$GNRMC,220201.00,A,4025.00289,N,00340.22457,W,0.043,,010218,,,D*76
$GNGSA,A,3,86,74,85,75,84,,,,,,,,1.66,1.07,1.28*1E
$GNRMC,220202.00,A,4025.00294,N,00340.22457,W,0.097,,010218,,,D*70
$GLGSV,3,3,09,87,00,229,*5A
$GNRMC,220203.00,A,4025.00298,N,00340.22457,W,0.092,,010218,,,D*78
$GLGSV,3,3,09,87,00,229,*5A
$GNRMC,220204.00,A,4025.00301,N,00340.22459,W,0.166,,010218,,,D*7A
$GLGSV,3,3,09,87,00,229,*5A
$GNRMC,220205.00,A,4025.00303,N,00340.22461,W,0.030,,010218,,,D*70
$GLGSV,3,3,09,87,01,230,*53
$GNRMC,220206.00,A,4025.00307,N,00340.22461,W,0.011,,010218,,,D*74
$GLGSV,3,3,09,87,01,230,*53
$GNRMC,220207.00,A,4025.00309,N,00340.22463,W,0.019,,010218,,,D*71
$GLGSV,3,3,09,87,01,230,*53
$GNRMC,220208.00,A,4025.00307,N,00340.22466,W,0.048,,010218,,,D*71
$GLGSV,3,3,09,87,01,230,*53
$GNRMC,220209.00,A,4025.00303,N,00340.22472,W,0.011,,010218,,,D*7D
$GPGSV,4,1,14,05,03,035,,16,37,309,,18,11,139,,20,20,087,06*7B
$GNRMC,220210.00,A,4025.00300,N,00340.22478,W,0.017,,010218,,,D*7A
$GLGSV,3,3,09,87,01,230,*53
$GNRMC,220211.00,A,4025.00300,N,00340.22481,W,0.064,,010218,,,D*79
$GLGSV,3,3,09,87,01,230,*53
$GNRMC,220212.00,A,4025.00297,N,00340.22486,W,0.083,,010218,,,D*7B
$GLGSV,3,3,09,87,01,230,*53
$GNRMC,220213.00,A,4025.00291,N,00340.22491,W,0.149,,010218,,,D*7D
$GLGSV,3,3,09,87,01,230,*53
$GNRMC,220214.00,A,4025.00282,N,00340.22498,W,0.028,,010218,,,D*77
$GLGSV,3,3,09,87,01,230,*53
$GNRMC,220215.00,A,4025.00281,N,00340.22502,W,0.051,,010218,,,D*79
$GLGSV,3,3,09,87,01,230,*53
$GNRMC,220216.00,A,4025.00277,N,00340.22507,W,0.072,,010218,,,D*77
$GLGSV,3,3,09,87,01,230,*53
$GNRMC,220217.00,A,4025.00273,N,00340.22510,W,0.021,,010218,,,D*72
$GLGSV,3,3,09,87,01,230,*53
$GNRMC,220218.00,A,4025.00267,N,00340.22515,W,0.032,,010218,,,D*7F
$GLGSV,3,3,09,87,01,230,*53
$GNRMC,220219.00,A,4025.00263,N,00340.22522,W,0.009,,010218,,,D*76
$GLGSV,3,3,09,87,01,230,*53
$GNRMC,220220.00,A,4025.00261,N,00340.22527,W,0.011,,010218,,,D*72
$GLGSV,3,3,09,87,01,230,*53
$GNRMC,220221.00,A,4025.00255,N,00340.22531,W,0.007,,010218,,,D*74
$GPGSV,4,1,14,05,03,035,,16,37,309,,18,11,139,,20,20,087,11*7D
$GNRMC,220222.00,A,4025.00247,N,00340.22538,W,0.047,,010218,,,D*79
$GLGSV,3,3,09,87,01,230,*53
$GNRMC,220223.00,A,4025.00241,N,00340.22541,W,0.219,,010218,,,D*79
$GPGSV,4,1,14,05,03,035,,16,37,309,,18,11,138,,20,20,087,08*74
$GNRMC,220224.00,A,4025.00236,N,00340.22544,W,0.013,,010218,,,D*73
$GNRMC,220225.00,A,4025.00231,N,00340.22544,W,0.103,,010218,,,D*75
$GLGSV,3,3,09,87,01,230,*53
$GNRMC,220226.00,A,4025.00222,N,00340.22545,W,0.167,,010218,,,D*77
$GLGSV,3,3,09,87,01,230,*53
$GNRMC,220227.00,A,4025.00207,N,00340.22549,W,0.131,,010218,,,D*7E
$GLGSV,3,3,09,87,01,230,*53
$GNRMC,220228.00,A,4025.00190,N,00340.22548,W,0.096,,010218,,,D*71
$GLGSV,3,3,09,87,01,230,*53
$GNRMC,220229.00,A,4025.00176,N,00340.22552,W,0.069,,010218,,,D*73
$GLGSV,3,3,09,87,01,230,*53
$GNRMC,220230.00,A,4025.00168,N,00340.22552,W,0.028,,010218,,,D*71
$GLGSV,3,3,09,87,01,230,*53
$GNRMC,220231.00,A,4025.00157,N,00340.22555,W,0.022,,010218,,,D*71
$GLGSV,3,3,09,87,01,230,*53
$GNRMC,220232.00,A,4025.00146,N,00340.22559,W,0.124,,010218,,,D*79
$GLGSV,3,3,09,87,01,230,*53
$GNRMC,220233.00,A,4025.00129,N,00340.22562,W,0.094,,010218,,,D*73
$GLGSV,3,3,09,87,01,230,*53
$GNRMC,220234.00,A,4025.00102,N,00340.22570,W,0.048,,010218,,,D*7F
$GLGSV,3,3,09,87,01,230,*53
$GNRMC,220235.00,A,4025.00086,N,00340.22573,W,0.091,,010218,,,D*74
$GLGSV,3,3,09,87,01,230,*53
$GNRMC,220236.00,A,4025.00078,N,00340.22575,W,0.014,,010218,,,D*7D
$GPGSV,4,1,14,05,03,035,,16,37,309,,18,11,138,,20,20,086,09*74
$GNRMC,220237.00,A,4025.00076,N,00340.22577,W,0.021,,010218,,,D*76
$GLGSV,3,3,09,87,01,230,*53
$GNRMC,220238.00,A,4025.00068,N,00340.22581,W,0.056,,010218,,,D*7F
$GLGSV,3,3,09,87,01,230,*53
$GNRMC,220239.00,A,4025.00060,N,00340.22587,W,0.033,,010218,,,D*73
$GLGSV,3,3,09,87,01,230,*53
$GNRMC,220240.00,A,4025.00053,N,00340.22591,W,0.030,,010218,,,D*79
$GLGSV,3,3,09,87,01,230,*53
$GNRMC,220241.00,A,4025.00055,N,00340.22593,W,0.026,,010218,,,D*7B
$GNRMC,220242.00,A,4025.00054,N,00340.22596,W,0.054,,010218,,,D*79
$GNRMC,220243.00,A,4025.00051,N,00340.22601,W,0.122,,010218,,,D*70
$GNRMC,220244.00,A,4025.00049,N,00340.22605,W,0.032,,010218,,,D*7A
$GNRMC,220245.00,A,4025.00050,N,00340.22609,W,0.028,,010218,,,D*74
$GPGSV,4,1,14,05,03,035,,16,37,309,,18,11,138,,20,20,086,23*7C
$GNRMC,220246.00,A,4025.00052,N,00340.22614,W,0.040,,010218,,,D*77
$GPGSV,4,1,14,05,03,035,,16,37,309,,18,11,138,,20,20,086,24*7B
$GNRMC,220247.00,A,4025.00056,N,00340.22618,W,0.004,,010218,,,D*7E
$GPGSV,4,1,14,05,03,035,,16,37,309,,18,11,138,,20,20,086,24*7B
$GNRMC,220248.00,A,4025.00053,N,00340.22625,W,0.082,,010218,,,D*74
$GPGSV,4,1,14,05,03,035,,16,37,309,,18,11,138,,20,20,086,23*7C
$GNRMC,220249.00,A,4025.00056,N,00340.22632,W,0.042,,010218,,,D*7A
$GPGSV,4,1,14,05,03,035,,16,37,309,,18,11,138,,20,20,086,23*7C
$GNRMC,220250.00,A,4025.00058,N,00340.22638,W,0.037,,010218,,,D*74
$GPGSV,4,1,14,05,03,035,,16,37,309,,18,11,138,,20,20,086,22*7D
$GNRMC,220251.00,A,4025.00054,N,00340.22643,W,0.015,,010218,,,D*75
$GPGSV,4,1,14,05,03,035,,16,37,309,,18,11,138,,20,20,086,21*7E
$GNRMC,220252.00,A,4025.00054,N,00340.22646,W,0.071,,010218,,,D*71
$GPGSV,4,1,14,05,03,035,,16,37,309,,18,11,138,,20,20,086,20*7F
$GNRMC,220253.00,A,4025.00039,N,00340.22654,W,0.155,,010218,,,D*7F
$GPGSV,4,1,14,05,03,035,,16,37,309,,18,11,138,,20,20,086,19*75
$GNRMC,220254.00,A,4025.00015,N,00340.22664,W,0.046,,010218,,,D*76
$GPGSV,4,1,14,05,03,035,,16,37,309,,18,11,138,,20,20,086,18*74
$GNRMC,220255.00,A,4025.00001,N,00340.22670,W,0.016,,010218,,,D*72
$GPGSV,4,1,14,05,03,035,,16,37,309,,18,11,138,,20,20,086,17*7B
$GNRMC,220256.00,A,4024.99990,N,00340.22675,W,0.024,,010218,,,D*75
$GPGSV,4,1,14,05,03,035,,16,37,309,,18,11,138,,20,20,086,17*7B
$GNRMC,220257.00,A,4024.99980,N,00340.22680,W,0.019,,010218,,,D*71
$GPGSV,4,1,14,05,03,035,,16,37,309,,18,11,138,,20,20,086,17*7B
$GNRMC,220258.00,A,4024.99978,N,00340.22680,W,0.017,,010218,,,D*77
$GPGSV,4,1,14,05,03,035,,16,37,309,,18,11,138,,20,20,086,18*74
$GNRMC,220259.00,A,4024.99975,N,00340.22680,W,0.018,,010218,,,D*74
$GPGSV,4,1,14,05,03,035,,16,37,309,,18,11,138,,20,20,086,17*7B
$GNRMC,220300.00,A,4024.99972,N,00340.22680,W,0.113,,010218,,,D*74
$GPGSV,4,1,14,05,03,035,,16,37,309,,18,11,138,,20,20,086,16*7A
$GNRMC,220301.00,A,4024.99972,N,00340.22675,W,0.073,,010218,,,D*78
$GPGSV,4,1,14,05,03,035,,16,37,309,,18,11,138,,20,20,086,17*7B
$GNRMC,220302.00,A,4024.99975,N,00340.22672,W,0.022,,010218,,,D*7F
$GPGSV,4,1,14,05,03,035,,16,37,309,,18,11,138,,20,20,086,17*7B
$GNRMC,220303.00,A,4024.99981,N,00340.22665,W,0.175,,010218,,,D*70
$GPGSV,4,1,14,05,03,035,,16,37,309,,18,11,138,,20,20,086,16*7A
$GNRMC,220304.00,A,4024.99989,N,00340.22660,W,0.154,,010218,,,D*79
$GPGSV,4,1,14,05,03,035,,16,37,309,,18,11,138,,20,20,086,16*7A
$GNRMC,220305.00,A,4024.99993,N,00340.22656,W,0.021,,010218,,,D*75
$GLGSV,3,3,09,87,01,230,*53
$GNRMC,220306.00,A,4024.99999,N,00340.22649,W,0.066,,010218,,,D*71
$GLGSV,3,3,09,87,01,230,*53
$GNRMC,220307.00,A,4025.00005,N,00340.22642,W,0.062,,010218,,,D*72
$GLGSV,3,3,09,87,01,230,*53
$GNRMC,220308.00,A,4025.00009,N,00340.22638,W,0.078,,010218,,,D*77
$GLGSV,3,3,09,87,01,230,*53
$GNRMC,220309.00,A,4025.00008,N,00340.22635,W,0.046,,010218,,,D*77
$GLGSV,3,3,09,87,01,230,*53
$GNRMC,220310.00,A,4025.00007,N,00340.22633,W,0.060,,010218,,,D*72
$GLGSV,3,3,09,87,01,230,*53
$GNRMC,220311.00,A,4025.00012,N,00340.22630,W,0.013,,010218,,,D*70
$GLGSV,3,3,09,87,01,230,*53
$GNRMC,220312.00,A,4025.00021,N,00340.22625,W,0.024,,010218,,,D*73
$GLGSV,3,3,09,87,01,230,*53
$GNRMC,220313.00,A,4025.00029,N,00340.22622,W,0.170,,010218,,,D*7D
$GLGSV,3,3,09,87,01,230,*53
$GNRMC,220314.00,A,4025.00039,N,00340.22618,W,0.073,,010218,,,D*70
$GPGSV,4,1,14,05,03,035,,16,37,309,,18,11,138,,20,20,086,15*79
$GNRMC,220315.00,A,4025.00049,N,00340.22614,W,0.015,,010218,,,D*7A
$GPGSV,4,1,14,05,03,035,,16,37,309,,18,11,138,,20,20,086,14*78
$GNRMC,220316.00,A,4025.00060,N,00340.22611,W,0.065,,010218,,,D*70
$GLGSV,3,3,09,87,01,230,*53
$GNRMC,220317.00,A,4025.00069,N,00340.22607,W,0.041,,010218,,,D*79
$GLGSV,3,3,09,87,01,230,*53
$GNRMC,220318.00,A,4025.00078,N,00340.22604,W,0.020,,010218,,,D*72
$GLGSV,3,3,09,87,01,230,*53
$GNRMC,220319.00,A,4025.00089,N,00340.22599,W,0.010,,010218,,,D*79
$GLGSV,3,3,09,87,01,230,*53
$GNRMC,220320.00,A,4025.00098,N,00340.22594,W,0.025,,010218,,,D*78
$GPGSV,4,1,14,05,03,035,,16,37,309,,18,11,138,,20,20,086,10*7C
$GNRMC,220321.00,A,4025.00107,N,00340.22587,W,0.044,,010218,,,D*7B
$GNRMC,220322.00,A,4025.00116,N,00340.22581,W,0.039,,010218,,,D*74
$GNRMC,220323.00,A,4025.00125,N,00340.22576,W,0.134,,010218,,,D*71
$GNRMC,220324.00,A,4025.00135,N,00340.22572,W,0.057,,010218,,,D*77
$GNRMC,220325.00,A,4025.00146,N,00340.22568,W,0.015,,010218,,,D*7F
$GNRMC,220326.00,A,4025.00158,N,00340.22565,W,0.017,,010218,,,D*7C
$GNRMC,220327.00,A,4025.00169,N,00340.22563,W,0.045,,010218,,,D*7E
$GNRMC,220328.00,A,4025.00178,N,00340.22561,W,0.008,,010218,,,D*7A
$GNRMC,220329.00,A,4025.00186,N,00340.22559,W,0.024,,010218,,,D*7F
$GNRMC,220330.00,A,4025.00194,N,00340.22557,W,0.014,,010218,,,D*79
$GNRMC,220331.00,A,4025.00200,N,00340.22557,W,0.039,,010218,,,D*79
$GNRMC,220332.00,A,4025.00205,N,00340.22556,W,0.077,,010218,,,D*74
$GNRMC,220333.00,A,4025.00210,N,00340.22555,W,0.120,,010218,,,D*71
$GNRMC,220334.00,A,4025.00216,N,00340.22555,W,0.095,,010218,,,D*7F
$GNRMC,220335.00,A,4025.00215,N,00340.22560,W,0.041,,010218,,,D*72
$GPGSV,4,1,14,05,03,035,,16,38,310,,18,12,138,,20,20,086,07*7E
$GNRMC,220336.00,A,4025.00220,N,00340.22561,W,0.066,,010218,,,D*73
$GPGSV,4,1,14,05,03,035,,16,38,310,,18,12,138,,20,21,086,08*70
$GNRMC,220337.00,A,4025.00222,N,00340.22563,W,0.046,,010218,,,D*70
$GPGSV,4,1,14,05,03,035,,16,38,310,,18,12,138,,20,21,086,10*79
$GNRMC,220338.00,A,4025.00222,N,00340.22566,W,0.055,,010218,,,D*78
$GLGSV,3,3,09,87,01,230,*53
$GNRMC,220339.00,A,4025.00221,N,00340.22568,W,0.044,,010218,,,D*74
$GLGSV,3,3,09,87,01,230,*53
$GNRMC,220340.00,A,4025.00217,N,00340.22571,W,0.033,,010218,,,D*77
$GLGSV,3,3,09,87,01,230,*53
$GNRMC,220341.00,A,4025.00213,N,00340.22573,W,0.016,,010218,,,D*77
$GLGSV,3,3,09,87,01,230,*53
$GNRMC,220342.00,A,4025.00207,N,00340.22577,W,0.008,,010218,,,D*7A
$GPGSV,4,1,14,05,03,035,,16,38,310,,18,12,138,,20,21,086,*78
$GNRMC,220343.00,A,4025.00203,N,00340.22580,W,0.071,,010218,,,D*79
$GPGSV,4,1,14,05,03,035,,16,38,310,,18,12,138,,20,21,086,*78
$GNRMC,220344.00,A,4025.00201,N,00340.22583,W,0.092,,010218,,,D*72
$GPGSV,4,1,14,05,03,035,,16,38,310,,18,12,138,,20,21,086,08*70
