$GNGLL,4024.98785,N,00340.21652,W,223000.00,A,D*6F
$GNRMC,223001.00,A,4024.98793,N,00340.21665,W,0.316,,021021,,,D*70
$GNVTG,,T,,M,0.316,N,0.585,K,D*34
$GNGGA,223001.00,4024.98793,N,00340.21665,W,2,09,0.95,678.4,M,50.2,M,,0000*51
$GNGSA,A,3,32,12,31,25,24,06,29,,,,,,1.68,0.95,1.39*18
$GNGSA,A,3,82,70,,,,,,,,,,,1.68,0.95,1.39*19
$GPGSV,3,1,12,02,20,090,,06,12,053,13,10,00,241,,11,14,087,*7C
$GPGSV,3,2,12,12,61,038,15,24,40,117,32,25,71,306,25,29,37,186,38*7C
$GPGSV,3,3,12,31,10,302,21,32,47,285,14,36,31,133,39,49,42,167,41*71
$GLGSV,3,1,10,69,01,195,07,70,32,245,20,71,30,306,08,72,02,345,*68
$GLGSV,3,2,10,73,28,297,,79,26,073,,80,59,359,,81,32,047,*69
$GLGSV,3,3,10,82,43,112,24,83,17,157,*63
$GNGLL,4024.98793,N,00340.21665,W,223001.00,A,D*6D
$GNRMC,223002.00,A,4024.98782,N,00340.21659,W,0.046,,021021,,,D*7A
$GNVTG,,T,,M,0.046,N,0.085,K,D*37
$GNGGA,223002.00,4024.98782,N,00340.21659,W,2,10,1.15,677.9,M,50.2,M,,0000*5E
$GNGSA,A,3,32,12,31,25,24,06,29,,,,,,2.14,1.15,1.81*1A
$GNGSA,A,3,82,70,71,,,,,,,,,,2.14,1.15,1.81*1D
$GPGSV,3,1,12,02,20,090,,06,12,053,13,10,00,241,,11,14,087,*7C
$GPGSV,3,2,12,12,61,038,17,24,40,117,37,25,71,306,29,29,37,186,43*7B
$GPGSV,3,3,12,31,10,302,25,32,47,285,15,36,31,133,44,49,42,167,46*79
$GLGSV,3,1,10,69,01,195,04,70,32,245,23,71,30,306,12,72,02,345,*63
$GLGSV,3,2,10,73,28,297,14,79,26,073,,80,59,359,,81,32,046,*6D
$GLGSV,3,3,10,82,43,112,26,83,17,157,*61
$GNGLL,4024.98782,N,00340.21659,W,223002.00,A,D*61
$GNRMC,223003.00,A,4024.98791,N,00340.21663,W,0.164,,021021,,,D*71
$GNVTG,,T,,M,0.164,N,0.304,K,D*3C
$GNGGA,223003.00,4024.98791,N,00340.21663,W,2,10,1.15,677.6,M,50.2,M,,0000*5B
$GNGSA,A,3,32,12,31,25,24,06,29,,,,,,2.14,1.15,1.81*1A
$GNGSA,A,3,82,70,71,,,,,,,,,,2.14,1.15,1.81*1D
$GPGSV,3,1,12,02,20,090,,06,12,053,12,10,00,241,,11,14,087,*7D
$GPGSV,3,2,12,12,61,038,16,24,40,117,37,25,71,306,29,29,37,186,43*7A
$GPGSV,3,3,12,31,10,302,26,32,47,285,16,36,31,133,44,49,42,167,47*78
$GLGSV,3,1,10,69,01,195,08,70,32,245,23,71,30,306,16,72,02,345,*6B
$GLGSV,3,2,10,73,28,297,08,79,26,073,,80,59,359,,81,32,046,*60
$GLGSV,3,3,10,82,43,111,26,83,17,157,21*61
$GNGLL,4024.98791,N,00340.21663,W,223003.00,A,D*6B
$GNRMC,223004.00,A,4024.98806,N,00340.21672,W,0.073,,021021,,,D*70
$GNVTG,,T,,M,0.073,N,0.135,K,D*3B
$GNGGA,223004.00,4024.98806,N,00340.21672,W,2,09,1.15,677.0,M,50.2,M,,0000*53
$GNGSA,A,3,32,12,31,25,24,29,,,,,,,2.14,1.15,1.81*1C
$GNGSA,A,3,82,70,71,,,,,,,,,,2.14,1.15,1.81*1D
$GPGSV,3,1,12,02,20,090,10,06,12,053,,10,00,241,,11,14,087,*7F
$GPGSV,3,2,12,12,61,038,14,24,40,117,37,25,71,306,29,29,37,186,43*78
$GPGSV,3,3,12,31,10,302,27,32,47,285,17,36,31,133,44,49,42,167,46*79
$GLGSV,3,1,10,69,01,195,08,70,32,245,24,71,30,306,19,72,02,345,*63
$GLGSV,3,2,10,73,28,297,25,79,26,073,,80,59,359,,81,32,046,*6F
$GLGSV,3,3,10,82,43,111,27,83,17,157,21*60
$GNGLL,4024.98806,N,00340.21672,W,223004.00,A,D*6D
$GNRMC,223005.00,A,4024.98811,N,00340.21675,W,0.036,,021021,,,D*71
$GNVTG,,T,,M,0.036,N,0.067,K,D*3C
$GNGGA,223005.00,4024.98811,N,00340.21675,W,2,09,1.15,676.4,M,50.2,M,,0000*56
$GNGSA,A,3,32,12,31,25,24,29,,,,,,,2.15,1.15,1.81*1D
$GNGSA,A,3,82,70,71,,,,,,,,,,2.15,1.15,1.81*1C
$GPGSV,3,1,12,02,20,090,13,06,12,053,19,10,00,241,,11,14,087,*74
$GPGSV,3,2,12,12,61,038,12,24,40,117,37,25,71,306,29,29,37,186,43*7E
$GPGSV,3,3,12,31,10,302,28,32,47,285,17,36,31,133,44,49,42,167,47*77
$GLGSV,3,1,10,69,01,195,10,70,32,245,24,71,30,306,21,72,02,345,*61
$GLGSV,3,2,10,73,28,297,27,79,26,073,,80,59,359,,81,32,046,*6D
$GLGSV,3,3,10,82,43,111,27,83,17,157,21*60
$GNGLL,4024.98811,N,00340.21675,W,223005.00,A,D*6D
$GNRMC,223006.00,A,4024.98817,N,00340.21677,W,0.056,,021021,,,D*70
$GNVTG,,T,,M,0.056,N,0.104,K,D*3E
$GNGGA,223006.00,4024.98817,N,00340.21677,W,2,09,1.15,675.8,M,50.2,M,,0000*5E
$GNGSA,A,3,32,12,31,25,24,29,,,,,,,2.15,1.15,1.81*1D
$GNGSA,A,3,82,70,71,,,,,,,,,,2.15,1.15,1.81*1C
$GPGSV,3,1,12,02,20,090,20,06,12,053,20,10,00,241,,11,14,087,*7E
$GPGSV,3,2,12,12,61,038,11,24,40,117,38,25,71,306,30,29,37,186,44*7D
$GPGSV,3,3,12,31,10,302,28,32,47,285,18,36,31,133,46,49,42,167,48*75
$GLGSV,3,1,10,69,01,195,08,70,32,245,25,71,30,306,22,72,02,345,*6A
$GLGSV,3,2,10,73,28,297,18,79,26,073,,80,59,359,,81,32,046,*61
$GLGSV,3,3,10,82,43,111,27,83,17,157,21*60
$GNGLL,4024.98817,N,00340.21677,W,223006.00,A,D*6A
$GNRMC,223007.00,A,4024.98826,N,00340.21681,W,0.041,,021021,,,D*7C
$GNVTG,,T,,M,0.041,N,0.075,K,D*3F
$GNGGA,223007.00,4024.98826,N,00340.21681,W,2,09,1.15,675.2,M,50.2,M,,0000*5E
$GNGSA,A,3,32,12,31,25,24,29,,,,,,,2.15,1.15,1.81*1D
$GNGSA,A,3,82,70,71,,,,,,,,,,2.15,1.15,1.81*1C
$GPGSV,3,1,12,02,20,090,25,06,12,053,21,10,00,241,,11,14,087,*7A
$GPGSV,3,2,12,12,61,038,11,24,40,117,38,25,71,306,29,29,37,186,44*75
$GPGSV,3,3,12,31,10,302,29,32,47,285,18,36,31,133,45,49,42,167,48*77
$GLGSV,3,1,10,69,01,195,08,70,32,245,25,71,30,306,22,72,02,345,*6A
$GLGSV,3,2,10,73,28,297,28,79,26,073,,80,59,359,,81,32,046,*62
$GLGSV,3,3,10,82,43,111,27,83,17,157,21*60
$GNGLL,4024.98826,N,00340.21681,W,223007.00,A,D*60
$GNRMC,223008.00,A,4024.98830,N,00340.21685,W,0.048,,021021,,,D*79
$GNVTG,,T,,M,0.048,N,0.089,K,D*35
$GNGGA,223008.00,4024.98830,N,00340.21685,W,2,10,1.04,675.0,M,50.2,M,,0000*58
$GNGSA,A,3,32,12,31,25,24,06,29,,,,,,1.93,1.04,1.62*1B
$GNGSA,A,3,82,70,71,,,,,,,,,,1.93,1.04,1.62*1C
$GPGSV,3,1,12,02,20,090,23,06,12,053,21,10,00,241,,11,14,087,*7C
$GPGSV,3,2,12,12,61,038,08,24,40,117,38,25,71,306,29,29,37,186,44*7D
$GPGSV,3,3,12,31,10,302,29,32,47,285,18,36,31,133,45,49,42,167,47*78
$GLGSV,3,1,10,69,01,195,07,70,32,245,25,71,30,306,22,72,02,345,*65
$GLGSV,3,2,10,73,28,297,20,79,26,073,20,80,59,359,,81,32,046,*68
$GLGSV,3,3,10,82,43,111,26,83,17,157,22*62
$GNGLL,4024.98830,N,00340.21685,W,223008.00,A,D*6C
$GNRMC,223009.00,A,4024.98832,N,00340.21691,W,0.111,,021021,,,D*72
$GNVTG,,T,,M,0.111,N,0.205,K,D*3E
$GNGGA,223009.00,4024.98832,N,00340.21691,W,2,11,1.01,674.9,M,50.2,M,,0000*52
$GNGSA,A,3,32,12,31,25,24,06,02,29,,,,,1.87,1.01,1.57*1F
$GNGSA,A,3,82,70,71,,,,,,,,,,1.87,1.01,1.57*1A
$GPGSV,3,1,12,02,20,090,23,06,12,053,21,10,00,241,,11,14,087,*7C
$GPGSV,3,2,12,12,61,038,13,24,40,117,38,25,71,306,29,29,37,186,44*77
$GPGSV,3,3,12,31,10,302,29,32,47,285,16,36,31,133,45,49,42,167,47*76
$GLGSV,3,1,10,69,01,195,05,70,32,245,25,71,30,306,23,72,02,345,*66
$GLGSV,3,2,10,73,28,297,16,79,26,073,21,80,59,359,,81,32,046,*6C
$GLGSV,3,3,10,82,43,111,26,83,17,157,22*62
$GNGLL,4024.98832,N,00340.21691,W,223009.00,A,D*6A
$GNRMC,223010.00,A,4024.98832,N,00340.21694,W,0.099,,021021,,,D*7E
$GNVTG,,T,,M,0.099,N,0.183,K,D*32
$GNGGA,223010.00,4024.98832,N,00340.21694,W,2,11,1.01,674.9,M,50.2,M,,0000*5F
$GNGSA,A,3,32,12,31,25,24,06,02,29,,,,,1.87,1.01,1.57*1F
$GNGSA,A,3,82,70,71,,,,,,,,,,1.87,1.01,1.57*1A
$GPGSV,3,1,12,02,20,090,22,06,12,053,21,10,00,241,,11,14,087,19*75
$GPGSV,3,2,12,12,61,038,14,24,40,117,38,25,71,306,28,29,37,186,44*71
$GPGSV,3,3,12,31,10,302,29,32,47,285,14,36,31,133,45,49,42,167,47*74
$GLGSV,3,1,10,69,01,195,08,70,32,245,25,71,30,306,23,72,02,345,*6B
$GLGSV,3,2,10,73,28,297,11,79,26,073,21,80,59,359,,81,32,046,*6B
$GLGSV,3,3,10,82,43,111,25,83,17,157,23*60
$GNGLL,4024.98832,N,00340.21694,W,223010.00,A,D*67
$GNRMC,223011.00,A,4024.98837,N,00340.21694,W,0.079,,021021,,,D*74
$GNVTG,,T,,M,0.079,N,0.146,K,D*35
$GNGGA,223011.00,4024.98837,N,00340.21694,W,2,10,1.19,674.7,M,50.2,M,,0000*5D
$GNGSA,A,3,12,31,25,24,06,02,29,,,,,,2.13,1.19,1.77*1B
$GNGSA,A,3,82,70,71,,,,,,,,,,2.13,1.19,1.77*1F
$GPGSV,3,1,12,02,20,089,20,06,12,053,20,10,00,241,,11,14,087,19*7E
$GPGSV,3,2,12,12,61,038,16,24,40,117,38,25,71,306,28,29,37,186,44*73
$GPGSV,3,3,12,31,10,302,29,32,47,285,10,36,31,133,45,49,42,167,47*70
$GLGSV,3,1,10,69,01,195,08,70,32,245,25,71,30,306,22,72,02,345,*6A
$GLGSV,3,2,10,73,28,297,12,79,26,073,22,80,59,359,,81,32,046,*6B
$GLGSV,3,3,10,82,43,111,25,83,17,157,22*61
$GNGLL,4024.98837,N,00340.21694,W,223011.00,A,D*63
$GNRMC,223012.00,A,4024.98842,N,00340.21694,W,0.065,,021021,,,D*78
$GNVTG,,T,,M,0.065,N,0.120,K,D*38
$GNGGA,223012.00,4024.98842,N,00340.21694,W,2,10,1.19,674.6,M,50.2,M,,0000*5D
$GNGSA,A,3,12,31,25,24,06,02,29,,,,,,2.13,1.19,1.77*1B
$GNGSA,A,3,82,70,71,,,,,,,,,,2.13,1.19,1.77*1F
$GPGSV,3,1,12,02,20,089,19,06,12,053,21,10,00,241,,11,14,087,20*7F
$GPGSV,3,2,12,12,61,038,18,24,40,117,38,25,71,306,27,29,37,186,44*72
$GPGSV,3,3,12,31,10,302,29,32,47,285,08,36,31,133,45,49,42,167,47*79
$GLGSV,3,1,10,69,01,195,09,70,32,245,25,71,30,306,22,72,02,345,*6B
$GLGSV,3,2,10,73,28,297,08,79,26,073,22,80,59,359,,81,32,046,*60
$GLGSV,3,3,10,82,43,111,25,83,17,157,22*61
$GNGLL,4024.98842,N,00340.21694,W,223012.00,A,D*62
$GNRMC,223013.00,A,4024.98845,N,00340.21692,W,0.043,,021021,,,D*7C
$GNVTG,,T,,M,0.043,N,0.080,K,D*37
$GNGGA,223013.00,4024.98845,N,00340.21692,W,2,11,1.14,674.6,M,50.2,M,,0000*51
$GNGSA,A,3,32,12,31,25,24,06,02,29,,,,,2.01,1.14,1.66*14
$GNGSA,A,3,82,70,71,,,,,,,,,,2.01,1.14,1.66*11
$GPGSV,3,1,12,02,20,089,18,06,12,053,20,10,00,241,,11,14,087,19*75
$GPGSV,3,2,12,12,61,038,16,24,40,117,37,25,71,306,26,29,37,186,44*72
$GPGSV,3,3,12,31,10,302,29,32,47,285,17,36,31,133,45,49,42,167,47*77
$GLGSV,3,1,10,69,01,195,10,70,32,245,25,71,30,306,22,72,02,345,*63
$GLGSV,3,2,10,73,28,297,13,79,26,073,23,80,59,359,,81,32,046,*6B
$GLGSV,3,3,10,82,43,111,25,83,17,157,23*60
$GNGLL,4024.98845,N,00340.21692,W,223013.00,A,D*62
$GNRMC,223014.00,A,4024.98847,N,00340.21688,W,0.019,,021021,,,D*7D
$GNVTG,,T,,M,0.019,N,0.035,K,D*36
$GNGGA,223014.00,4024.98847,N,00340.21688,W,2,10,1.19,674.5,M,50.2,M,,0000*50
$GNGSA,A,3,32,31,25,24,06,02,29,,,,,,2.13,1.19,1.77*19
$GNGSA,A,3,82,70,71,,,,,,,,,,2.13,1.19,1.77*1F
$GPGSV,3,1,12,02,20,089,19,06,12,053,19,10,00,241,,11,14,087,19*7E
$GPGSV,3,2,12,12,61,038,07,24,40,117,37,25,71,306,25,29,37,186,44*71
$GPGSV,3,3,12,31,10,302,28,32,47,285,15,36,31,133,45,49,42,167,47*74
$GLGSV,3,1,10,69,01,195,09,70,32,245,25,71,30,306,22,72,02,345,*6B
$GLGSV,3,2,10,73,28,297,18,79,26,073,23,80,59,359,,81,32,046,*60
$GLGSV,3,3,10,82,43,111,25,83,17,157,23*60
$GNGLL,4024.98847,N,00340.21688,W,223014.00,A,D*6C
$GNRMC,223015.00,A,4024.98852,N,00340.21684,W,0.083,,021021,,,D*77
$GNVTG,,T,,M,0.083,N,0.154,K,D*33
$GNGGA,223015.00,4024.98852,N,00340.21684,W,2,10,1.19,674.5,M,50.2,M,,0000*59
$GNGSA,A,3,32,31,25,24,06,02,29,,,,,,2.13,1.19,1.77*19
$GNGSA,A,3,82,70,71,,,,,,,,,,2.13,1.19,1.77*1F
$GPGSV,3,1,12,02,20,089,19,06,12,052,19,10,00,241,,11,14,087,19*7F
$GPGSV,3,2,12,12,61,038,08,24,40,117,37,25,71,306,24,29,37,186,44*7F
$GPGSV,3,3,12,31,10,302,28,32,47,285,15,36,31,133,45,49,42,167,47*74
$GLGSV,3,1,10,69,01,195,11,70,32,245,25,71,30,306,23,72,02,345,*63
$GLGSV,3,2,10,73,28,297,12,79,26,073,23,80,59,359,,81,32,046,*6A
$GLGSV,3,3,10,82,43,111,25,83,17,157,23*60
$GNGLL,4024.98852,N,00340.21684,W,223015.00,A,D*65
$GNRMC,223016.00,A,4024.98855,N,00340.21680,W,0.073,,021021,,,D*78
$GNVTG,,T,,M,0.073,N,0.136,K,D*38
$GNGGA,223016.00,4024.98855,N,00340.21680,W,2,11,1.02,674.5,M,50.2,M,,0000*52
$GNGSA,A,3,32,12,31,25,24,06,02,29,,,,,1.80,1.02,1.48*15
$GNGSA,A,3,82,70,71,,,,,,,,,,1.80,1.02,1.48*10
$GPGSV,3,1,12,02,20,089,19,06,12,052,19,10,00,241,,11,14,087,19*7F
$GPGSV,3,2,12,12,61,038,10,24,40,117,37,25,71,306,24,29,37,186,44*76
$GPGSV,3,3,12,31,10,302,28,32,47,285,19,36,31,133,45,49,42,167,47*78
$GLGSV,3,1,10,69,01,195,12,70,32,245,24,71,30,306,23,72,02,345,*61
$GLGSV,3,2,10,73,28,297,04,79,26,073,23,80,59,359,,81,32,046,*6D
$GLGSV,3,3,10,82,43,111,25,83,17,157,23*60
$GNGLL,4024.98855,N,00340.21680,W,223016.00,A,D*65
$GNRMC,223017.00,A,4024.98855,N,00340.21674,W,0.088,,021021,,,D*76
$GNVTG,,T,,M,0.088,N,0.164,K,D*3B
$GNGGA,223017.00,4024.98855,N,00340.21674,W,2,11,1.02,674.5,M,50.2,M,,0000*58
$GNGSA,A,3,32,12,31,25,24,06,02,29,,,,,1.80,1.02,1.48*15
$GNGSA,A,3,82,70,71,,,,,,,,,,1.80,1.02,1.48*10
$GPGSV,3,1,12,02,20,089,18,06,12,052,18,10,00,241,,11,14,087,19*7F
$GPGSV,3,2,12,12,61,038,13,24,40,117,37,25,71,306,24,29,37,186,44*75
$GPGSV,3,3,12,31,10,302,28,32,47,285,16,36,31,133,45,49,42,167,47*77
$GLGSV,3,1,10,69,01,195,08,70,32,245,25,71,30,306,23,72,02,345,*6B
$GLGSV,3,2,10,73,28,297,,79,26,073,24,80,59,359,,81,32,046,*6E
$GLGSV,3,3,10,82,43,111,25,83,17,157,23*60
$GNGLL,4024.98855,N,00340.21674,W,223017.00,A,D*6F
$GNRMC,223018.00,A,4024.98854,N,00340.21669,W,0.089,,021021,,,D*75
$GNVTG,,T,,M,0.089,N,0.165,K,D*3B
$GNGGA,223018.00,4024.98854,N,00340.21669,W,2,11,1.02,674.2,M,50.2,M,,0000*5D
$GNGSA,A,3,32,12,31,25,24,06,02,29,,,,,1.80,1.02,1.48*15
$GNGSA,A,3,82,70,71,,,,,,,,,,1.80,1.02,1.48*10
$GPGSV,3,1,12,02,20,089,19,06,12,052,18,10,00,241,,11,14,087,18*7F
$GPGSV,3,2,12,12,61,038,15,24,40,117,37,25,71,306,23,29,37,186,44*74
$GPGSV,3,3,12,31,10,302,27,32,47,285,18,36,31,133,45,49,42,167,47*76
$GLGSV,3,1,10,69,01,195,13,70,32,245,24,71,30,306,24,72,02,345,*67
$GLGSV,3,2,10,73,28,297,04,79,26,073,24,80,59,359,,81,32,046,*6A
$GLGSV,3,3,10,82,43,111,26,83,17,157,23*63
$GNGLL,4024.98854,N,00340.21669,W,223018.00,A,D*6D
$GNRMC,223019.00,A,4024.98841,N,00340.21652,W,0.040,,021021,,,D*7D
$GNVTG,,T,,M,0.040,N,0.074,K,D*3F
$GNGGA,223019.00,4024.98841,N,00340.21652,W,2,11,0.97,673.8,M,50.2,M,,0000*50
$GNGSA,A,3,32,12,31,25,24,06,02,29,,,,,1.77,0.97,1.48*10
$GNGSA,A,3,82,70,71,,,,,,,,,,1.77,0.97,1.48*15
$GPGSV,3,1,12,02,20,089,18,06,12,052,17,10,00,240,,11,14,087,17*7F
$GPGSV,3,2,12,12,61,038,17,24,40,117,37,25,71,306,23,29,37,186,44*76
$GPGSV,3,3,12,31,10,302,27,32,47,285,19,36,31,133,45,49,42,167,47*77
$GLGSV,3,1,10,69,01,195,12,70,32,245,24,71,30,306,25,72,02,345,*67
$GLGSV,3,2,10,73,28,297,05,79,26,073,24,80,59,359,,81,32,046,*6B
$GLGSV,3,3,10,82,43,111,26,83,17,157,23*63
$GNGLL,4024.98841,N,00340.21652,W,223019.00,A,D*60
$GNRMC,223020.00,A,4024.98825,N,00340.21635,W,0.017,,021021,,,D*76
$GNVTG,,T,,M,0.017,N,0.032,K,D*3F
$GNGGA,223020.00,4024.98825,N,00340.21635,W,2,11,0.97,673.6,M,50.2,M,,0000*57
$GNGSA,A,3,32,12,31,25,24,06,02,29,,,,,1.77,0.97,1.48*10
$GNGSA,A,3,82,70,71,,,,,,,,,,1.77,0.97,1.48*15
$GPGSV,3,1,12,02,20,089,18,06,12,052,15,10,00,240,,11,14,086,16*7D
$GPGSV,3,2,12,12,61,038,20,24,40,117,38,25,71,306,23,29,37,186,44*7D
$GPGSV,3,3,12,31,10,302,27,32,47,285,19,36,31,133,45,49,42,167,47*77
$GLGSV,3,1,10,69,01,195,12,70,32,245,24,71,30,306,26,72,02,345,*64
$GLGSV,3,2,10,73,28,297,,79,26,073,24,80,59,359,,81,32,046,*6E
$GLGSV,3,3,10,82,43,111,27,83,17,157,23*62
$GNGLL,4024.98825,N,00340.21635,W,223020.00,A,D*69
$GNRMC,223021.00,A,4024.98822,N,00340.21626,W,0.061,,021021,,,D*73
$GNVTG,,T,,M,0.061,N,0.112,K,D*3D
$GNGGA,223021.00,4024.98822,N,00340.21626,W,2,11,1.10,673.7,M,50.2,M,,0000*5C
$GNGSA,A,3,32,12,31,25,24,06,02,29,,,,,2.07,1.10,1.76*17
$GNGSA,A,3,82,70,71,,,,,,,,,,2.07,1.10,1.76*12
$GPGSV,3,1,12,02,20,089,18,06,12,052,16,10,00,240,,11,14,086,14*7C
$GPGSV,3,2,12,12,61,038,21,24,40,117,38,25,71,306,25,29,37,186,44*7A
$GPGSV,3,3,12,31,10,302,26,32,47,285,20,36,31,133,45,49,42,167,47*7C
$GLGSV,3,1,10,69,01,195,09,70,32,245,24,71,30,306,26,72,02,345,*6E
$GLGSV,3,2,10,73,28,297,,79,26,073,24,80,59,359,,81,32,046,*6E
$GLGSV,3,3,10,82,43,111,27,83,17,157,23*62
$GNGLL,4024.98822,N,00340.21626,W,223021.00,A,D*6D
$GNRMC,223022.00,A,4024.98815,N,00340.21617,W,0.028,,021021,,,D*7B
$GNVTG,,T,,M,0.028,N,0.051,K,D*36
$GNGGA,223022.00,4024.98815,N,00340.21617,W,2,11,1.10,673.7,M,50.2,M,,0000*59
$GNGSA,A,3,32,12,31,25,24,06,02,29,,,,,2.07,1.10,1.76*17
$GNGSA,A,3,82,70,71,,,,,,,,,,2.07,1.10,1.76*12
$GPGSV,3,1,12,02,20,089,18,06,12,052,18,10,00,240,,11,14,086,14*72
$GPGSV,3,2,12,12,61,038,22,24,40,117,38,25,71,306,25,29,37,186,44*79
$GPGSV,3,3,12,31,10,302,26,32,47,285,19,36,31,133,44,49,42,167,47*77
$GLGSV,3,1,10,69,01,195,11,70,32,245,24,71,30,306,27,72,02,345,*66
$GLGSV,3,2,10,73,28,297,,79,26,073,22,80,59,359,,81,32,046,*68
$GLGSV,3,3,10,82,43,111,27,83,17,157,23*62
$GNGLL,4024.98815,N,00340.21617,W,223022.00,A,D*68
$GNRMC,223023.00,A,4024.98807,N,00340.21607,W,0.022,,021021,,,D*72
$GNVTG,,T,,M,0.022,N,0.042,K,D*3E
$GNGGA,223023.00,4024.98807,N,00340.21607,W,2,11,1.10,673.6,M,50.2,M,,0000*5B
$GNGSA,A,3,32,12,31,25,24,06,02,29,,,,,2.07,1.10,1.76*17
$GNGSA,A,3,82,70,71,,,,,,,,,,2.07,1.10,1.76*12
$GPGSV,3,1,12,02,20,089,19,06,12,052,20,10,00,240,,11,14,086,13*7F
$GPGSV,3,2,12,12,61,038,23,24,40,117,38,25,71,306,26,29,37,186,44*7B
$GPGSV,3,3,12,31,10,302,26,32,47,285,19,36,31,133,45,49,42,167,47*76
$GLGSV,3,1,10,69,01,195,12,70,32,245,24,71,30,306,27,72,02,345,*65
$GLGSV,3,2,10,73,28,297,,79,26,073,21,80,59,359,,81,32,046,*6B
$GLGSV,3,3,10,82,43,111,28,83,17,157,24*6A
$GNGLL,4024.98807,N,00340.21607,W,223023.00,A,D*6B
$GNRMC,223024.00,A,4024.98799,N,00340.21596,W,0.084,,021021,,,D*7A
$GNVTG,,T,,M,0.084,N,0.155,K,D*35
$GNGGA,223024.00,4024.98799,N,00340.21596,W,2,11,1.10,673.5,M,50.2,M,,0000*5C
$GNGSA,A,3,32,12,31,25,24,06,02,29,,,,,2.07,1.10,1.76*17
$GNGSA,A,3,82,70,71,,,,,,,,,,2.07,1.10,1.76*12
$GPGSV,3,1,12,02,20,089,19,06,12,052,21,10,00,240,,11,14,086,13*7E
$GPGSV,3,2,12,12,61,038,23,24,40,117,38,25,71,306,27,29,37,186,44*7A
$GPGSV,3,3,12,31,10,302,25,32,47,285,18,36,31,133,45,49,42,167,47*74
$GLGSV,3,1,10,69,01,195,08,70,32,245,23,71,30,306,27,72,02,345,*69
$GLGSV,3,2,10,73,28,297,,79,26,073,19,80,59,359,,81,32,046,*60
$GLGSV,3,3,10,82,43,111,28,83,17,157,24*6A
$GNGLL,4024.98799,N,00340.21596,W,223024.00,A,D*6F
$GNRMC,223025.00,A,4024.98791,N,00340.21587,W,0.096,,021021,,,D*70
$GNVTG,,T,,M,0.096,N,0.178,K,D*39
$GNGGA,223025.00,4024.98791,N,00340.21587,W,2,11,1.10,673.2,M,50.2,M,,0000*52
$GNGSA,A,3,32,12,31,25,24,06,02,29,,,,,2.07,1.10,1.76*17
$GNGSA,A,3,82,70,71,,,,,,,,,,2.07,1.10,1.76*12
$GPGSV,3,1,12,02,20,089,19,06,12,052,23,10,00,240,,11,14,086,12*7D
$GPGSV,3,2,12,12,61,038,24,24,40,117,38,25,71,306,27,29,37,186,44*7D
$GPGSV,3,3,12,31,10,302,25,32,47,285,18,36,31,133,45,49,42,167,47*74
$GLGSV,3,1,10,69,01,195,12,70,32,245,23,71,30,306,27,72,02,345,*62
$GLGSV,3,2,10,73,28,297,,79,26,073,18,80,59,359,,81,32,046,20*63
$GLGSV,3,3,10,82,43,111,29,83,17,157,24*6B
$GNGLL,4024.98791,N,00340.21587,W,223025.00,A,D*66
$GNRMC,223026.00,A,4024.98774,N,00340.21573,W,0.117,,021021,,,D*7B
$GNVTG,,T,,M,0.117,N,0.216,K,D*3A
$GNGGA,223026.00,4024.98774,N,00340.21573,W,2,11,0.97,672.3,M,50.2,M,,0000*5F
$GNGSA,A,3,32,12,31,25,24,06,02,29,,,,,1.77,0.97,1.48*10
$GNGSA,A,3,82,70,71,,,,,,,,,,1.77,0.97,1.48*15
$GPGSV,3,1,12,02,20,089,19,06,12,052,24,10,00,240,,11,14,086,10*78
$GPGSV,3,2,12,12,61,038,24,24,40,117,38,25,71,306,28,29,37,186,44*72
$GPGSV,3,3,12,31,10,302,24,32,47,285,18,36,31,133,45,49,42,167,47*75
$GLGSV,3,1,10,69,01,195,09,70,32,245,23,71,30,306,27,72,02,345,*68
$GLGSV,3,2,10,73,28,297,,79,26,073,18,80,59,359,,81,32,046,20*63
$GLGSV,3,3,10,82,43,111,30,83,17,157,25*62
$GNGLL,4024.98774,N,00340.21573,W,223026.00,A,D*65
$GNRMC,223027.00,A,4024.98759,N,00340.21557,W,0.029,,021021,,,D*7F
$GNVTG,,T,,M,0.029,N,0.055,K,D*33
$GNGGA,223027.00,4024.98759,N,00340.21557,W,2,11,0.97,671.5,M,50.2,M,,0000*52
$GNGSA,A,3,32,12,31,25,24,06,02,29,,,,,1.77,0.97,1.48*10
$GNGSA,A,3,82,70,71,,,,,,,,,,1.77,0.97,1.48*15
$GPGSV,3,1,12,02,20,089,20,06,12,052,25,10,00,240,,11,14,086,*72
$GPGSV,3,2,12,12,61,038,25,24,40,117,38,25,71,306,29,29,37,186,44*72
$GPGSV,3,3,12,31,10,302,23,32,47,285,20,36,31,133,45,49,42,167,47*79
$GLGSV,3,1,10,69,01,195,11,70,32,245,23,71,30,306,27,72,02,345,*61
$GLGSV,3,2,10,73,28,297,,79,26,073,17,80,59,359,,81,32,046,22*6E
$GLGSV,3,3,10,82,43,111,30,83,17,157,24*63
$GNGLL,4024.98759,N,00340.21557,W,223027.00,A,D*6D
$GNRMC,223028.00,A,4024.98748,N,00340.21542,W,0.072,,021021,,,D*7A
$GNVTG,,T,,M,0.072,N,0.133,K,D*3C
$GNGGA,223028.00,4024.98748,N,00340.21542,W,2,11,1.39,670.5,M,50.2,M,,0000*5D
$GNGSA,A,3,32,12,31,25,24,06,02,29,,,,,2.40,1.39,1.95*12
$GNGSA,A,3,82,70,71,,,,,,,,,,2.40,1.39,1.95*17
$GPGSV,3,1,12,02,20,089,21,06,12,052,25,10,00,240,,11,14,086,*73
$GPGSV,3,2,12,12,61,038,25,24,40,117,38,25,71,306,29,29,37,186,44*72
$GPGSV,3,3,12,31,10,302,23,32,47,285,21,36,31,133,45,49,42,167,47*78
$GLGSV,3,1,10,69,01,195,12,70,32,245,24,71,30,306,27,72,02,345,*65
$GLGSV,3,2,10,73,28,297,,79,26,073,17,80,59,359,,81,32,046,23*6F
$GLGSV,3,3,10,82,43,111,30,83,17,157,24*63
$GNGLL,4024.98748,N,00340.21542,W,223028.00,A,D*66
$GNRMC,223029.00,A,4024.98737,N,00340.21530,W,0.016,,021021,,,D*74
$GNVTG,,T,,M,0.016,N,0.030,K,D*3C
$GNGGA,223029.00,4024.98737,N,00340.21530,W,2,11,1.15,669.5,M,50.2,M,,0000*57
$GNGSA,A,3,32,12,31,25,24,06,02,29,,,,,2.25,1.15,1.93*19
$GNGSA,A,3,82,70,71,,,,,,,,,,2.25,1.15,1.93*1C
$GPGSV,3,1,12,02,20,089,22,06,12,052,24,10,00,240,,11,14,086,*71
$GPGSV,3,2,12,12,61,038,26,24,40,117,38,25,71,306,29,29,37,186,44*71
$GPGSV,3,3,12,31,10,302,22,32,47,285,21,36,31,133,45,49,42,167,47*79
$GLGSV,3,1,10,69,01,195,07,70,32,245,24,71,30,306,27,72,02,345,*61
$GLGSV,3,2,10,73,28,297,,79,26,073,18,80,59,359,,81,32,046,24*67
$GLGSV,3,3,10,82,43,111,31,83,17,157,23*65
$GNGLL,4024.98737,N,00340.21530,W,223029.00,A,D*6A
$GNRMC,223030.00,A,4024.98725,N,00340.21519,W,0.021,,021021,,,D*70
$GNVTG,,T,,M,0.021,N,0.039,K,D*31
$GNGGA,223030.00,4024.98725,N,00340.21519,W,2,11,1.15,668.9,M,50.2,M,,0000*5A
$GNGSA,A,3,32,12,31,25,24,06,02,29,,,,,1.92,1.15,1.53*1A
$GNGSA,A,3,82,70,71,,,,,,,,,,1.92,1.15,1.53*1F
$GPGSV,3,1,12,02,20,089,23,06,12,052,23,10,00,240,,11,14,086,07*70
$GPGSV,3,2,12,12,61,038,27,24,40,117,38,25,71,306,30,29,37,186,44*78
$GPGSV,3,3,12,31,10,302,21,32,47,285,21,36,31,133,45,49,42,167,47*7A
$GLGSV,3,1,10,69,01,195,07,70,32,245,24,71,30,306,27,72,02,345,*61
$GLGSV,3,2,10,73,28,297,,79,26,073,18,80,59,359,,81,32,046,24*67
$GLGSV,3,3,10,82,43,111,31,83,17,157,23*65
$GNGLL,4024.98725,N,00340.21519,W,223030.00,A,D*6A
$GNRMC,223031.00,A,4024.98711,N,00340.21510,W,0.057,,021021,,,D*7E
$GNVTG,,T,,M,0.057,N,0.105,K,D*3E
$GNGGA,223031.00,4024.98711,N,00340.21510,W,2,11,1.22,668.6,M,50.2,M,,0000*5E
$GNGSA,A,3,32,12,31,25,24,06,02,29,,,,,2.38,1.22,2.05*1D
$GNGSA,A,3,82,70,71,,,,,,,,,,2.38,1.22,2.05*18
$GPGSV,3,1,12,02,20,089,24,06,12,052,22,10,00,240,,11,14,086,11*71
$GPGSV,3,2,12,12,61,038,27,24,40,117,38,25,71,306,30,29,37,186,44*78
$GPGSV,3,3,12,31,10,302,20,32,47,285,21,36,31,133,44,49,42,167,47*7A
$GLGSV,3,1,10,69,01,195,11,70,32,245,24,71,30,306,28,72,02,345,*69
$GLGSV,3,2,10,73,28,297,,79,26,073,17,80,59,359,,81,32,046,24*68
$GLGSV,3,3,10,82,43,111,32,83,17,157,24*61
$GNGLL,4024.98711,N,00340.21510,W,223031.00,A,D*65
$GNRMC,223032.00,A,4024.98695,N,00340.21503,W,0.016,,021021,,,D*77
$GNVTG,,T,,M,0.016,N,0.030,K,D*3C
$GNGGA,223032.00,4024.98695,N,00340.21503,W,2,10,1.22,668.5,M,50.2,M,,0000*50
$GNGSA,A,3,32,12,25,24,06,02,29,,,,,,2.38,1.22,2.05*1F
$GNGSA,A,3,82,70,71,,,,,,,,,,2.38,1.22,2.05*18
$GPGSV,3,1,12,02,20,089,25,06,12,052,21,10,00,240,,11,14,086,15*77
$GPGSV,3,2,12,12,61,038,27,24,40,117,38,25,71,306,31,29,37,186,44*79
$GPGSV,3,3,12,31,10,302,,32,47,285,21,36,31,133,45,49,42,167,47*79
$GLGSV,3,1,10,69,01,195,11,70,32,245,24,71,30,306,28,72,02,345,*69
$GLGSV,3,2,10,73,28,297,,79,26,073,16,80,59,359,,81,32,046,24*69
$GLGSV,3,3,10,82,43,111,31,83,17,157,24*62
$GNGLL,4024.98695,N,00340.21503,W,223032.00,A,D*69
$GNRMC,223033.00,A,4024.98678,N,00340.21500,W,0.035,,021021,,,D*77
$GNVTG,,T,,M,0.035,N,0.065,K,D*3D
$GNGGA,223033.00,4024.98678,N,00340.21500,W,2,10,1.22,668.5,M,50.2,M,,0000*51
$GNGSA,A,3,32,12,25,24,06,02,29,,,,,,2.38,1.22,2.05*1F
$GNGSA,A,3,82,70,71,,,,,,,,,,2.38,1.22,2.05*18
$GPGSV,3,1,12,02,20,089,25,06,12,052,21,10,00,240,,11,14,086,15*77
$GPGSV,3,2,12,12,61,038,28,24,39,118,38,25,71,306,31,29,37,186,44*77
$GPGSV,3,3,12,31,10,302,,32,47,285,21,36,31,133,44,49,42,167,47*78
$GLGSV,3,1,10,69,01,195,12,70,32,245,24,71,30,306,28,72,02,345,*6A
$GLGSV,3,2,10,73,28,297,,79,26,073,15,80,59,359,,81,32,046,25*6B
$GLGSV,3,3,10,82,44,111,32,83,17,157,24*66
$GNGLL,4024.98678,N,00340.21500,W,223033.00,A,D*68
$GNRMC,223034.00,A,4024.98661,N,00340.21497,W,0.061,,021021,,,D*76
$GNVTG,,T,,M,0.061,N,0.112,K,D*3D
$GNGGA,223034.00,4024.98661,N,00340.21497,W,2,10,1.22,668.5,M,50.2,M,,0000*51
$GNGSA,A,3,32,12,25,24,06,02,29,,,,,,2.38,1.22,2.05*1F
$GNGSA,A,3,82,70,71,,,,,,,,,,2.38,1.22,2.05*18
$GPGSV,3,1,12,02,20,089,26,06,12,052,20,10,00,240,,11,14,086,15*75
$GPGSV,3,2,12,12,61,038,28,24,39,118,38,25,71,307,31,29,37,186,44*76
$GPGSV,3,3,12,31,10,302,,32,47,285,21,36,31,133,44,49,42,167,47*78
$GLGSV,3,1,10,69,01,195,09,70,32,245,24,71,30,306,28,72,02,345,*60
$GLGSV,3,2,10,73,28,297,,79,26,073,13,80,59,359,,81,32,046,25*6D
$GLGSV,3,3,10,82,44,111,32,83,17,157,23*61
$GNGLL,4024.98661,N,00340.21497,W,223034.00,A,D*68
$GNRMC,223035.00,A,4024.98645,N,00340.21496,W,0.013,,021021,,,D*75
$GNVTG,,T,,M,0.013,N,0.025,K,D*3D
$GNGGA,223035.00,4024.98645,N,00340.21496,W,2,10,1.17,668.7,M,50.2,M,,0000*53
$GNGSA,A,3,32,12,25,24,06,02,29,,,,,,2.36,1.17,2.05*17
$GNGSA,A,3,82,70,71,,,,,,,,,,2.36,1.17,2.05*10
$GPGSV,3,1,12,02,20,089,26,06,12,052,20,10,00,240,,11,14,086,16*76
$GPGSV,3,2,12,12,61,038,28,24,39,118,38,25,71,307,31,29,37,186,44*76
$GPGSV,3,3,12,31,10,302,,32,47,285,21,36,31,133,44,49,42,167,47*78
$GLGSV,3,1,10,69,01,195,11,70,32,245,23,71,30,306,27,72,02,345,*61
$GLGSV,3,2,10,73,28,297,,79,26,073,13,80,59,359,,81,32,046,26*6E
$GLGSV,3,3,10,82,44,111,32,83,17,157,23*61
$GNGLL,4024.98645,N,00340.21496,W,223035.00,A,D*6E
$GNRMC,223036.00,A,4024.98631,N,00340.21496,W,0.025,,021021,,,D*70
$GNVTG,,T,,M,0.025,N,0.045,K,D*3E
$GNGGA,223036.00,4024.98631,N,00340.21496,W,2,10,1.17,669.0,M,50.2,M,,0000*55
$GNGSA,A,3,32,12,25,24,06,02,29,,,,,,2.36,1.17,2.05*17
$GNGSA,A,3,82,70,71,,,,,,,,,,2.36,1.17,2.05*10
$GPGSV,3,1,12,02,20,089,26,06,12,052,21,10,00,240,,11,14,086,15*74
$GPGSV,3,2,12,12,61,038,28,24,39,118,39,25,71,307,31,29,37,186,44*77
$GPGSV,3,3,12,31,10,302,,32,47,285,21,36,31,133,44,49,42,167,47*78
$GLGSV,3,1,10,69,01,195,10,70,32,245,23,71,30,306,27,72,02,345,*60
$GLGSV,3,2,10,73,28,297,,79,26,073,12,80,59,359,,81,32,046,26*6F
$GLGSV,3,3,10,82,44,111,32,83,17,157,23*61
$GNGLL,4024.98631,N,00340.21496,W,223036.00,A,D*6E
$GNRMC,223037.00,A,4024.98616,N,00340.21496,W,0.051,,021021,,,D*77
$GNVTG,,T,,M,0.051,N,0.095,K,D*30
$GNGGA,223037.00,4024.98616,N,00340.21496,W,2,10,1.17,669.2,M,50.2,M,,0000*53
$GNGSA,A,3,32,12,25,24,06,02,29,,,,,,2.36,1.17,2.05*17
$GNGSA,A,3,82,70,71,,,,,,,,,,2.36,1.17,2.05*10
$GPGSV,3,1,12,02,20,089,25,06,12,052,21,10,00,240,,11,14,086,14*76
$GPGSV,3,2,12,12,61,038,28,24,39,118,39,25,71,307,32,29,38,186,44*7B
$GPGSV,3,3,12,31,10,302,,32,47,285,22,36,31,133,44,49,42,167,47*7B
$GLGSV,3,1,10,69,01,195,10,70,32,245,23,71,30,306,28,72,02,345,*6F
$GLGSV,3,2,10,73,28,297,,79,26,073,13,80,59,359,,81,32,046,25*6D
$GLGSV,3,3,10,82,44,111,32,83,17,157,23*61
$GNGLL,4024.98616,N,00340.21496,W,223037.00,A,D*6A
$GNRMC,223038.00,A,4024.98604,N,00340.21494,W,0.044,,021021,,,D*7D
$GNVTG,,T,,M,0.044,N,0.082,K,D*32
$GNGGA,223038.00,4024.98604,N,00340.21494,W,2,10,1.17,669.5,M,50.2,M,,0000*5A
$GNGSA,A,3,32,12,25,24,06,02,29,,,,,,2.36,1.17,2.05*17
$GNGSA,A,3,82,70,71,,,,,,,,,,2.36,1.17,2.05*10
$GPGSV,3,1,12,02,20,089,24,06,12,052,22,10,00,240,,11,14,086,12*72
$GPGSV,3,2,12,12,61,038,28,24,39,118,39,25,71,307,32,29,38,186,44*7B
$GPGSV,3,3,12,31,10,302,,32,47,285,22,36,31,133,44,49,42,167,47*7B
$GLGSV,3,1,10,69,01,195,09,70,32,245,23,71,30,306,27,72,02,345,*68
$GLGSV,3,2,10,73,28,297,,79,26,073,12,80,59,359,,81,32,046,26*6F
$GLGSV,3,3,10,82,44,111,32,83,17,157,23*61
$GNGLL,4024.98604,N,00340.21494,W,223038.00,A,D*64
$GNRMC,223039.00,A,4024.98593,N,00340.21494,W,0.076,,021021,,,D*70
$GNVTG,,T,,M,0.076,N,0.140,K,D*3C
$GNGGA,223039.00,4024.98593,N,00340.21494,W,2,10,1.17,669.9,M,50.2,M,,0000*5A
$GNGSA,A,3,32,12,25,24,06,02,29,,,,,,2.36,1.17,2.05*17
$GNGSA,A,3,82,70,71,,,,,,,,,,2.36,1.17,2.05*10
$GPGSV,4,1,13,02,20,089,23,06,12,052,22,10,00,240,,11,14,086,12*73
$GPGSV,4,2,13,12,61,038,28,24,39,118,39,25,71,307,32,29,38,186,44*7D
$GPGSV,4,3,13,31,11,303,,32,47,285,23,33,42,198,29,36,31,133,45*78
$GPGSV,4,4,13,49,42,167,47*43
$GLGSV,3,1,10,69,01,195,09,70,32,245,24,71,30,305,28,72,02,345,*63
$GLGSV,3,2,10,73,28,297,,79,26,073,09,80,59,359,,81,32,046,25*66
$GLGSV,3,3,10,82,44,111,31,83,17,157,23*62
$GNGLL,4024.98593,N,00340.21494,W,223039.00,A,D*68
$GNRMC,223040.00,A,4024.98589,N,00340.21482,W,0.020,,021021,,,D*71
$GNVTG,,T,,M,0.020,N,0.036,K,D*3F
$GNGGA,223040.00,4024.98589,N,00340.21482,W,2,10,1.37,669.6,M,50.2,M,,0000*55
$GNGSA,A,3,32,12,25,24,06,02,29,,,,,,3.18,1.37,2.87*12
$GNGSA,A,3,82,70,71,,,,,,,,,,3.18,1.37,2.87*15
$GPGSV,3,1,12,02,20,089,22,06,12,052,22,10,00,240,,11,14,086,12*74
$GPGSV,3,2,12,12,61,038,27,24,39,118,39,25,71,307,32,29,38,186,44*74
$GPGSV,3,3,12,31,11,303,,32,47,285,23,36,31,133,45,49,42,167,47*7B
$GLGSV,3,1,10,69,01,195,09,70,32,245,23,71,30,305,27,72,02,345,*6B
$GLGSV,3,2,10,73,28,297,,79,26,073,08,80,59,359,,81,32,046,25*67
$GLGSV,3,3,10,82,44,111,31,83,17,157,23*62
$GNGLL,4024.98589,N,00340.21482,W,223040.00,A,D*6A
$GNRMC,223041.00,A,4024.98586,N,00340.21471,W,0.012,,021021,,,D*72
$GNVTG,,T,,M,0.012,N,0.022,K,D*3B
$GNGGA,223041.00,4024.98586,N,00340.21471,W,2,10,1.37,669.4,M,50.2,M,,0000*55
$GNGSA,A,3,32,12,25,24,06,02,29,,,,,,3.18,1.37,2.87*12
$GNGSA,A,3,82,70,71,,,,,,,,,,3.18,1.37,2.87*15
$GPGSV,3,1,12,02,20,089,22,06,12,052,22,10,00,240,,11,14,086,14*72
$GPGSV,3,2,12,12,61,038,27,24,39,118,39,25,71,307,33,29,38,186,44*75
$GPGSV,3,3,12,31,11,303,,32,47,285,23,36,31,133,45,49,42,167,47*7B
$GLGSV,3,1,10,69,01,195,,70,32,245,23,71,30,305,27,72,02,345,*62
$GLGSV,3,2,10,73,28,297,,79,26,073,08,80,59,359,,81,32,046,25*67
$GLGSV,3,3,10,82,44,111,30,83,17,157,23*63
$GNGLL,4024.98586,N,00340.21471,W,223041.00,A,D*68
$GNRMC,223042.00,A,4024.98584,N,00340.21460,W,0.010,,021021,,,D*71
$GNVTG,,T,,M,0.010,N,0.018,K,D*30
$GNGGA,223042.00,4024.98584,N,00340.21460,W,2,10,1.37,669.1,M,50.2,M,,0000*51
$GNGSA,A,3,32,12,25,24,06,02,29,,,,,,3.18,1.37,2.87*12
$GNGSA,A,3,82,70,71,,,,,,,,,,3.18,1.37,2.87*15
$GPGSV,3,1,12,02,20,089,22,06,12,052,22,10,00,240,,11,14,086,13*75
$GPGSV,3,2,12,12,61,038,27,24,39,118,39,25,71,307,33,29,38,186,44*75
$GPGSV,3,3,12,31,11,303,,32,47,285,23,36,31,133,45,49,42,167,47*7B
$GLGSV,3,1,10,69,01,195,,70,32,245,23,71,30,305,27,72,02,345,*62
$GLGSV,3,2,10,73,28,297,,79,26,073,,80,59,359,,81,32,046,26*6C
$GLGSV,3,3,10,82,44,111,30,83,17,157,24*64
$GNGLL,4024.98584,N,00340.21460,W,223042.00,A,D*69
$GNRMC,223043.00,A,4024.98582,N,00340.21452,W,0.037,,021021,,,D*72
$GNVTG,,T,,M,0.037,N,0.068,K,D*32
$GNGGA,223043.00,4024.98582,N,00340.21452,W,2,10,1.37,669.1,M,50.2,M,,0000*57
$GNGSA,A,3,32,12,25,24,06,02,29,,,,,,3.18,1.37,2.87*12
$GNGSA,A,3,82,70,71,,,,,,,,,,3.18,1.37,2.87*15
$GPGSV,3,1,12,02,20,089,22,06,12,052,23,10,00,240,,11,14,086,13*74
$GPGSV,3,2,12,12,61,038,27,24,39,118,39,25,71,307,32,29,38,186,44*74
$GPGSV,3,3,12,31,11,303,,32,47,285,23,36,31,133,45,49,42,167,47*7B
$GLGSV,3,1,10,69,01,195,,70,32,245,23,71,30,305,27,72,02,345,*62
$GLGSV,3,2,10,73,28,297,,79,26,073,,80,59,359,,81,32,046,26*6C
$GLGSV,3,3,10,82,44,111,29,83,17,157,24*6C
$GNGLL,4024.98582,N,00340.21452,W,223043.00,A,D*6F
$GNRMC,223044.00,A,4024.98574,N,00340.21454,W,0.109,,021021,,,D*76
$GNVTG,,T,,M,0.109,N,0.201,K,D*33
$GNGGA,223044.00,4024.98574,N,00340.21454,W,2,10,1.05,669.7,M,50.2,M,,0000*58
$GNGSA,A,3,32,12,25,24,06,02,29,,,,,,2.22,1.05,1.96*18
$GNGSA,A,3,82,70,71,,,,,,,,,,2.22,1.05,1.96*1F
$GPGSV,3,1,12,02,20,089,22,06,12,052,23,10,00,240,,11,14,086,14*73
$GPGSV,3,2,12,12,61,038,26,24,39,118,39,25,71,307,32,29,38,186,44*75
$GPGSV,3,3,12,31,11,303,,32,47,285,22,36,31,133,45,49,42,167,47*7A
$GLGSV,3,1,10,69,01,195,,70,32,245,23,71,30,305,28,72,02,345,*6D
$GLGSV,3,2,10,73,28,297,,79,26,073,,80,59,359,,81,32,046,27*6D
$GLGSV,3,3,10,82,44,111,29,83,17,157,24*6C
$GNGLL,4024.98574,N,00340.21454,W,223044.00,A,D*67
$GNRMC,223045.00,A,4024.98567,N,00340.21461,W,0.038,,021021,,,D*70
$GNVTG,,T,,M,0.038,N,0.071,K,D*35
$GNGGA,223045.00,4024.98567,N,00340.21461,W,2,10,1.05,670.4,M,50.2,M,,0000*56
$GNGSA,A,3,32,12,25,24,06,02,29,,,,,,2.22,1.05,1.96*18
$GNGSA,A,3,82,70,71,,,,,,,,,,2.22,1.05,1.96*1F
$GPGSV,3,1,12,02,20,089,24,06,12,052,24,10,00,240,,11,14,086,13*75
$GPGSV,3,2,12,12,61,038,27,24,39,118,38,25,71,307,32,29,38,186,44*75
$GPGSV,3,3,12,31,11,303,,32,47,285,23,36,31,133,45,49,42,167,47*7B
$GLGSV,3,1,10,69,01,195,,70,32,245,23,71,30,305,28,72,02,345,*6D
$GLGSV,3,2,10,73,28,297,,79,26,073,,80,59,359,,81,32,046,27*6D
$GLGSV,3,3,10,82,44,111,28,83,17,157,24*6D
$GNGLL,4024.98567,N,00340.21461,W,223045.00,A,D*62
$GNRMC,223046.00,A,4024.98560,N,00340.21469,W,0.001,,021021,,,D*76
$GNVTG,,T,,M,0.001,N,0.002,K,D*3B
$GNGGA,223046.00,4024.98560,N,00340.21469,W,2,10,1.05,671.2,M,50.2,M,,0000*5D
$GNGSA,A,3,32,12,25,24,06,02,29,,,,,,2.22,1.05,1.96*18
$GNGSA,A,3,82,70,71,,,,,,,,,,2.22,1.05,1.96*1F
$GPGSV,3,1,12,02,20,089,24,06,12,052,24,10,00,240,,11,14,086,15*73
$GPGSV,3,2,12,12,61,038,27,24,39,118,39,25,71,307,31,29,38,186,44*77
$GPGSV,3,3,12,31,11,303,,32,47,285,23,36,31,133,44,49,42,167,47*7A
$GLGSV,3,1,10,69,01,195,,70,32,245,23,71,30,305,28,72,02,345,*6D
$GLGSV,3,2,10,73,28,297,,79,26,073,,80,59,359,,81,32,046,27*6D
$GLGSV,3,3,10,82,44,111,28,83,17,157,24*6D
$GNGLL,4024.98560,N,00340.21469,W,223046.00,A,D*6E
$GNRMC,223047.00,A,4024.98553,N,00340.21476,W,0.026,,021021,,,D*7C
$GNVTG,,T,,M,0.026,N,0.048,K,D*30
$GNGGA,223047.00,4024.98553,N,00340.21476,W,2,10,1.05,672.1,M,50.2,M,,0000*52
$GNGSA,A,3,32,12,25,24,06,02,29,,,,,,2.22,1.05,1.96*18
$GNGSA,A,3,82,70,71,,,,,,,,,,2.22,1.05,1.96*1F
$GPGSV,3,1,12,02,20,089,23,06,12,052,24,10,00,240,,11,14,086,15*74
$GPGSV,3,2,12,12,61,038,27,24,39,118,39,25,71,307,31,29,38,186,44*77
$GPGSV,3,3,12,31,11,303,,32,47,285,22,36,31,133,44,49,42,167,47*7B
$GLGSV,3,1,10,69,01,195,,70,32,245,23,71,30,305,28,72,02,345,*6D
$GLGSV,3,2,10,73,28,297,,79,26,073,,80,59,359,,81,32,046,27*6D
$GLGSV,3,3,10,82,44,111,28,83,17,157,24*6D
$GNGLL,4024.98553,N,00340.21476,W,223047.00,A,D*61
$GNRMC,223048.00,A,4024.98546,N,00340.21483,W,0.013,,021021,,,D*7B
$GNVTG,,T,,M,0.013,N,0.025,K,D*3D
$GNGGA,223048.00,4024.98546,N,00340.21483,W,2,10,1.05,673.0,M,50.2,M,,0000*53
$GNGSA,A,3,32,12,25,24,06,02,29,,,,,,2.22,1.05,1.96*18
$GNGSA,A,3,82,70,71,,,,,,,,,,2.22,1.05,1.96*1F
$GPGSV,3,1,12,02,20,089,23,06,12,052,24,10,00,240,,11,14,086,16*77
$GPGSV,3,2,12,12,61,038,27,24,39,118,39,25,71,307,30,29,38,186,44*76
$GPGSV,3,3,12,31,11,303,,32,47,285,21,36,31,133,44,49,42,167,47*78
$GLGSV,3,1,10,69,01,195,,70,32,245,23,71,30,305,28,72,02,345,*6D
$GLGSV,3,2,10,73,28,297,,79,26,073,,80,59,359,,81,32,046,27*6D
$GLGSV,3,3,10,82,44,111,28,83,17,157,24*6D
$GNGLL,4024.98546,N,00340.21483,W,223048.00,A,D*60
$GNRMC,223049.00,A,4024.98542,N,00340.21494,W,0.041,,021021,,,D*7F
$GNVTG,,T,,M,0.041,N,0.076,K,D*3C
$GNGGA,223049.00,4024.98542,N,00340.21494,W,2,10,1.05,674.0,M,50.2,M,,0000*57
$GNGSA,A,3,32,12,25,24,06,02,29,,,,,,2.22,1.05,1.96*18
$GNGSA,A,3,82,70,71,,,,,,,,,,2.22,1.05,1.96*1F
$GPGSV,3,1,12,02,20,089,24,06,12,052,24,10,00,240,,11,14,086,15*73
$GPGSV,3,2,12,12,61,038,28,24,39,118,39,25,71,307,30,29,38,186,44*79
$GPGSV,3,3,12,31,11,303,,32,47,285,22,36,31,133,44,49,42,167,47*7B
$GLGSV,3,1,10,69,01,195,,70,32,245,23,71,30,305,27,72,02,345,*62
$GLGSV,3,2,10,73,28,297,,79,26,073,,80,59,359,,81,32,046,27*6D
$GLGSV,3,3,10,82,44,111,28,83,17,157,24*6D
$GNGLL,4024.98542,N,00340.21494,W,223049.00,A,D*63
$GNRMC,223050.00,A,4024.98526,N,00340.21512,W,0.116,,021021,,,D*79
$GNVTG,,T,,M,0.116,N,0.214,K,D*39
$GNGGA,223050.00,4024.98526,N,00340.21512,W,2,10,0.92,675.8,M,50.2,M,,0000*54
$GNGSA,A,3,32,12,25,24,06,02,29,,,,,,1.82,0.92,1.57*13
$GNGSA,A,3,82,70,71,,,,,,,,,,1.82,0.92,1.57*14
$GPGSV,3,1,12,02,20,089,24,06,12,052,24,10,00,240,,11,14,086,15*73
$GPGSV,3,2,12,12,61,038,28,24,39,118,38,25,71,307,30,29,38,186,44*78
$GPGSV,3,3,12,31,11,303,,32,47,285,21,36,31,133,44,49,42,167,47*78
$GLGSV,3,1,10,69,01,195,,70,32,245,23,71,30,305,27,72,02,345,*62
$GLGSV,3,2,10,73,28,297,,79,26,073,,80,59,359,,81,32,046,25*6F
$GLGSV,3,3,10,82,44,111,28,83,17,157,24*6D
$GNGLL,4024.98526,N,00340.21512,W,223050.00,A,D*66
$GNRMC,223051.00,A,4024.98511,N,00340.21528,W,0.109,,021021,,,D*7B
$GNVTG,,T,,M,0.109,N,0.203,K,D*31
$GNGGA,223051.00,4024.98511,N,00340.21528,W,2,10,0.92,677.2,M,50.2,M,,0000*50
$GNGSA,A,3,32,12,25,24,06,02,29,,,,,,1.82,0.92,1.57*13
$GNGSA,A,3,82,70,71,,,,,,,,,,1.82,0.92,1.57*14
$GPGSV,3,1,12,02,20,089,25,06,12,052,24,10,00,240,,11,14,086,16*71
$GPGSV,3,2,12,12,61,038,29,24,39,118,38,25,71,307,30,29,38,186,44*79
$GPGSV,3,3,12,31,11,303,,32,47,285,19,36,31,133,44,49,42,167,47*73
$GLGSV,3,1,10,69,01,195,,70,32,245,23,71,30,305,28,72,02,345,*6D
$GLGSV,3,2,10,73,28,297,,79,26,073,,80,59,359,,81,32,046,25*6F
$GLGSV,3,3,10,82,44,111,27,83,17,157,24*62
$GNGLL,4024.98511,N,00340.21528,W,223051.00,A,D*6A
$GNRMC,223052.00,A,4024.98497,N,00340.21538,W,0.011,,021021,,,D*7E
$GNVTG,,T,,M,0.011,N,0.021,K,D*3B
$GNGGA,223052.00,4024.98497,N,00340.21538,W,2,10,0.92,678.5,M,50.2,M,,0000*55
$GNGSA,A,3,32,12,25,24,06,02,29,,,,,,1.82,0.92,1.57*13
$GNGSA,A,3,82,70,71,,,,,,,,,,1.82,0.92,1.57*14
$GPGSV,3,1,12,02,20,089,24,06,12,052,24,10,00,240,,11,14,086,18*7E
$GPGSV,3,2,12,12,61,038,29,24,39,118,38,25,71,307,29,29,38,186,44*71
$GPGSV,3,3,12,31,11,303,,32,47,285,18,36,31,133,44,49,42,167,47*72
$GLGSV,3,1,10,69,01,195,,70,32,245,23,71,30,305,27,72,02,345,*62
$GLGSV,3,2,10,73,28,297,,79,26,073,,80,59,359,,81,32,046,25*6F
$GLGSV,3,3,10,82,44,111,27,83,17,157,24*62
$GNGLL,4024.98497,N,00340.21538,W,223052.00,A,D*67
$GNRMC,223053.00,A,4024.98483,N,00340.21547,W,0.060,,021021,,,D*74
$GNVTG,,T,,M,0.060,N,0.111,K,D*3F
$GNGGA,223053.00,4024.98483,N,00340.21547,W,2,10,0.92,679.7,M,50.2,M,,0000*5A
$GNGSA,A,3,32,12,25,24,06,02,29,,,,,,1.82,0.92,1.57*13
$GNGSA,A,3,82,70,71,,,,,,,,,,1.82,0.92,1.57*14
$GPGSV,3,1,12,02,20,089,23,06,12,052,25,10,00,240,,11,14,086,18*78
$GPGSV,3,2,12,12,61,038,29,24,39,118,38,25,71,307,29,29,38,186,44*71
$GPGSV,3,3,12,31,11,303,,32,47,285,17,36,31,133,44,49,42,167,47*7D
$GLGSV,3,1,10,69,01,195,,70,32,245,22,71,30,305,27,72,02,345,*63
$GLGSV,3,2,10,73,28,297,,79,26,073,,80,59,359,,81,32,046,25*6F
$GLGSV,3,3,10,82,44,111,27,83,17,157,24*62
$GNGLL,4024.98483,N,00340.21547,W,223053.00,A,D*6B
$GNRMC,223054.00,A,4024.98470,N,00340.21554,W,0.041,,021021,,,D*7E
$GNVTG,,T,,M,0.041,N,0.076,K,D*3C
$GNGGA,223054.00,4024.98470,N,00340.21554,W,2,10,0.92,680.6,M,50.2,M,,0000*54
$GNGSA,A,3,32,12,25,24,06,02,29,,,,,,1.82,0.92,1.57*13
$GNGSA,A,3,82,70,71,,,,,,,,,,1.82,0.92,1.57*14
$GPGSV,3,1,12,02,20,089,23,06,12,052,25,10,00,240,,11,14,086,18*78
$GPGSV,3,2,12,12,61,038,30,24,39,118,39,25,71,307,29,29,38,186,44*78
$GPGSV,3,3,12,31,11,303,,32,47,285,16,36,31,133,44,49,42,167,47*7C
$GLGSV,3,1,10,69,01,195,,70,32,245,22,71,30,305,27,72,02,345,*63
$GLGSV,3,2,10,73,28,297,,79,26,073,,80,59,359,,81,32,046,25*6F
$GLGSV,3,3,10,82,44,111,27,83,17,157,24*62
$GNGLL,4024.98470,N,00340.21554,W,223054.00,A,D*62
$GNRMC,223055.00,A,4024.98461,N,00340.21551,W,0.076,,021021,,,D*7E
$GNVTG,,T,,M,0.076,N,0.142,K,D*3E
$GNGGA,223055.00,4024.98461,N,00340.21551,W,2,10,1.07,681.0,M,50.2,M,,0000*5A
$GNGSA,A,3,32,12,25,24,06,02,29,,,,,,2.08,1.07,1.78*12
$GNGSA,A,3,82,70,71,,,,,,,,,,2.08,1.07,1.78*15
$GPGSV,3,1,12,02,20,089,23,06,12,052,25,10,00,240,,11,14,086,20*73
$GPGSV,3,2,12,12,61,038,30,24,39,118,39,25,71,307,29,29,38,186,43*7F
$GPGSV,3,3,12,31,11,303,,32,47,285,15,36,31,133,44,49,42,167,47*7F
$GLGSV,3,1,10,69,01,195,,70,32,245,23,71,30,305,26,72,02,345,*63
$GLGSV,3,2,10,73,28,297,,79,26,073,,80,59,359,,81,32,046,25*6F
$GLGSV,3,3,10,82,44,111,28,83,17,157,24*6D
$GNGLL,4024.98461,N,00340.21551,W,223055.00,A,D*66
$GNRMC,223056.00,A,4024.98451,N,00340.21547,W,0.055,,021021,,,D*78
$GNVTG,,T,,M,0.055,N,0.101,K,D*38
$GNGGA,223056.00,4024.98451,N,00340.21547,W,2,10,1.07,681.4,M,50.2,M,,0000*59
$GNGSA,A,3,32,12,25,24,06,02,29,,,,,,2.08,1.07,1.78*12
$GNGSA,A,3,82,70,71,,,,,,,,,,2.08,1.07,1.78*15
$GPGSV,3,1,12,02,20,089,23,06,12,052,25,10,00,240,,11,14,086,21*72
$GPGSV,3,2,12,12,61,038,30,24,39,118,39,25,71,307,29,29,38,186,43*7F
$GPGSV,3,3,12,31,11,303,,32,47,285,14,36,31,133,44,49,42,167,47*7E
$GLGSV,3,1,10,69,01,195,,70,32,245,23,71,30,305,26,72,02,345,*63
$GLGSV,3,2,10,73,28,297,,79,26,073,,80,59,359,,81,32,046,24*6E
$GLGSV,3,3,10,82,44,111,28,83,17,157,24*6D
$GNGLL,4024.98451,N,00340.21547,W,223056.00,A,D*61
$GNRMC,223057.00,A,4024.98440,N,00340.21546,W,0.076,,021021,,,D*79
$GNVTG,,T,,M,0.076,N,0.142,K,D*3E
$GNGGA,223057.00,4024.98440,N,00340.21546,W,2,10,1.07,681.9,M,50.2,M,,0000*54
$GNGSA,A,3,32,12,25,24,06,02,29,,,,,,2.08,1.07,1.78*12
$GNGSA,A,3,82,70,71,,,,,,,,,,2.08,1.07,1.78*15
$GPGSV,3,1,12,02,20,089,22,06,12,052,26,10,00,240,,11,14,086,22*73
$GPGSV,3,2,12,12,61,038,30,24,39,118,39,25,71,307,29,29,38,186,43*7F
$GPGSV,3,3,12,31,11,303,24,32,47,285,13,36,31,133,44,49,42,167,47*7F
$GLGSV,3,1,10,69,01,195,,70,32,245,24,71,30,305,25,72,02,345,*67
$GLGSV,3,2,10,73,28,297,,79,26,073,,80,59,359,,81,32,046,23*69
$GLGSV,3,3,10,82,44,111,28,83,17,157,24*6D
$GNGLL,4024.98440,N,00340.21546,W,223057.00,A,D*61
$GNRMC,223058.00,A,4024.98431,N,00340.21544,W,0.060,,021021,,,D*75
$GNVTG,,T,,M,0.060,N,0.112,K,D*3C
$GNGGA,223058.00,4024.98431,N,00340.21544,W,2,11,1.01,682.4,M,50.2,M,,0000*56
$GNGSA,A,3,32,12,31,25,24,06,02,29,,,,,1.75,1.01,1.43*17
$GNGSA,A,3,82,70,71,,,,,,,,,,1.75,1.01,1.43*12
$GPGSV,3,1,12,02,20,089,21,06,12,052,26,10,00,240,,11,14,086,23*71
$GPGSV,3,2,12,12,61,038,30,24,39,118,39,25,71,307,28,29,38,186,43*7E
$GPGSV,3,3,12,31,11,303,24,32,47,285,15,36,31,133,44,49,42,167,47*79
$GLGSV,3,1,10,69,01,195,,70,32,245,25,71,30,305,24,72,02,345,*67
$GLGSV,3,2,10,73,28,297,,79,26,073,,80,59,359,,81,32,046,23*69
$GLGSV,3,3,10,82,44,111,28,83,17,157,24*6D
$GNGLL,4024.98431,N,00340.21544,W,223058.00,A,D*6A
$GNRMC,223059.00,A,4024.98421,N,00340.21543,W,0.080,,021021,,,D*7C
$GNVTG,,T,,M,0.080,N,0.148,K,D*3D
$GNGGA,223059.00,4024.98421,N,00340.21543,W,2,10,1.07,683.0,M,50.2,M,,0000*53
$GNGSA,A,3,32,12,25,24,06,02,29,,,,,,2.08,1.07,1.78*12
$GNGSA,A,3,82,70,71,,,,,,,,,,2.08,1.07,1.78*15
$GPGSV,3,1,12,02,20,089,22,06,12,052,26,10,00,240,,11,14,086,24*75
$GPGSV,3,2,12,12,61,038,29,24,39,118,39,25,71,307,28,29,38,186,43*76
$GPGSV,3,3,12,31,11,303,,32,47,285,18,36,31,133,44,49,42,167,47*72
$GLGSV,3,1,10,69,01,195,,70,32,245,25,71,30,305,24,72,02,345,*67
$GLGSV,3,2,10,73,28,297,,79,26,073,,80,59,359,,81,32,046,23*69
$GLGSV,3,3,10,82,44,111,27,83,17,157,24*62
$GNGLL,4024.98421,N,00340.21543,W,223059.00,A,D*6D
$GNRMC,223100.00,A,4024.98413,N,00340.21551,W,0.030,,021021,,,D*78
$GNVTG,,T,,M,0.030,N,0.056,K,D*38
$GNGGA,223100.00,4024.98413,N,00340.21551,W,2,10,0.95,683.6,M,50.2,M,,0000*50
$GNGSA,A,3,32,12,25,24,06,02,29,,,,,,1.90,0.95,1.64*17
$GNGSA,A,3,82,70,71,,,,,,,,,,1.90,0.95,1.64*10
$GPGSV,3,1,12,02,20,089,22,06,12,052,27,10,00,240,,11,14,086,25*75
$GPGSV,3,2,12,12,61,038,30,24,39,118,39,25,71,307,27,29,38,186,43*71
$GPGSV,3,3,12,31,11,303,23,32,47,285,19,36,31,133,44,49,42,167,47*72
$GLGSV,3,1,10,69,01,195,,70,32,245,25,71,30,305,23,72,02,345,*60
$GLGSV,3,2,10,73,28,297,,79,26,073,,80,59,359,,81,32,046,23*69
$GLGSV,3,3,10,82,44,111,28,83,17,157,24*6D
$GNGLL,4024.98413,N,00340.21551,W,223100.00,A,D*62
$GNRMC,223101.00,A,4024.98404,N,00340.21559,W,0.050,,021021,,,D*71
$GNVTG,,T,,M,0.050,N,0.093,K,D*37
$GNGGA,223101.00,4024.98404,N,00340.21559,W,2,10,0.95,684.2,M,50.2,M,,0000*5C
$GNGSA,A,3,32,12,25,24,06,02,29,,,,,,1.90,0.95,1.64*17
$GNGSA,A,3,82,70,71,,,,,,,,,,1.90,0.95,1.64*10
$GPGSV,3,1,12,02,20,089,22,06,12,052,27,10,00,240,,11,14,086,25*75
$GPGSV,3,2,12,12,61,038,29,24,39,118,39,25,71,307,27,29,38,186,43*79
$GPGSV,3,3,12,31,11,303,23,32,47,285,21,36,31,133,44,49,42,167,47*79
$GLGSV,3,1,10,69,00,194,,70,32,245,26,71,30,305,21,72,02,345,*61
$GLGSV,3,2,10,73,28,297,,79,26,073,,80,59,359,,81,32,046,24*6E
$GLGSV,3,3,10,82,44,111,28,83,17,157,24*6D
$GNGLL,4024.98404,N,00340.21559,W,223101.00,A,D*6D
$GNRMC,223102.00,A,4024.98394,N,00340.21560,W,0.144,,021021,,,D*72
$GNVTG,,T,,M,0.144,N,0.266,K,D*3B
$GNGGA,223102.00,4024.98394,N,00340.21560,W,2,11,0.91,684.7,M,50.2,M,,0000*5B
$GNGSA,A,3,32,12,31,25,24,06,02,29,,,,,1.67,0.91,1.40*1F
$GNGSA,A,3,82,70,71,,,,,,,,,,1.67,0.91,1.40*1A
$GPGSV,3,1,12,02,20,089,23,06,12,052,27,10,00,240,,11,14,086,25*74
$GPGSV,3,2,12,12,61,038,29,24,39,118,39,25,71,307,26,29,38,186,43*78
$GPGSV,3,3,12,31,11,303,23,32,47,285,21,36,31,133,44,49,42,167,47*79
$GLGSV,3,1,10,69,00,194,,70,31,245,26,71,30,305,20,72,02,345,*63
$GLGSV,3,2,10,73,28,297,,79,26,073,,80,59,359,,81,32,046,25*6F
$GLGSV,3,3,10,82,44,111,28,83,17,157,24*6D
$GNGLL,4024.98394,N,00340.21560,W,223102.00,A,D*6A
$GNRMC,223103.00,A,4024.98387,N,00340.21562,W,0.118,,021021,,,D*7A
$GNVTG,,T,,M,0.118,N,0.219,K,D*3A
$GNGGA,223103.00,4024.98387,N,00340.21562,W,2,11,0.91,685.1,M,50.2,M,,0000*5D
$GNGSA,A,3,32,12,31,25,24,06,02,29,,,,,1.67,0.91,1.40*1F
$GNGSA,A,3,82,70,71,,,,,,,,,,1.67,0.91,1.40*1A
$GPGSV,3,1,12,02,20,089,22,06,12,052,27,10,00,240,,11,14,086,25*75
$GPGSV,3,2,12,12,61,038,29,24,39,118,38,25,71,307,25,29,38,186,43*7A
$GPGSV,3,3,12,31,11,303,23,32,47,285,22,36,31,133,44,49,42,167,47*7A
$GLGSV,3,1,10,69,00,194,,70,31,245,26,71,30,305,18,72,02,345,*68
$GLGSV,3,2,10,73,28,297,,79,26,073,,80,59,359,,81,32,046,25*6F
$GLGSV,3,3,10,82,44,111,29,83,17,157,24*6C
$GNGLL,4024.98387,N,00340.21562,W,223103.00,A,D*6B
$GNRMC,223104.00,A,4024.98376,N,00340.21565,W,0.062,,021021,,,D*78
$GNVTG,,T,,M,0.062,N,0.114,K,D*38
$GNGGA,223104.00,4024.98376,N,00340.21565,W,2,11,0.95,685.4,M,50.2,M,,0000*52
$GNGSA,A,3,32,12,31,25,24,06,02,29,,,,,1.90,0.95,1.64*15
$GNGSA,A,3,82,70,71,,,,,,,,,,1.90,0.95,1.64*10
$GPGSV,3,1,12,02,20,089,22,06,12,052,27,10,00,240,,11,14,086,25*75
$GPGSV,3,2,12,12,61,038,30,24,39,118,38,25,71,307,25,29,38,186,43*72
$GPGSV,3,3,12,31,11,303,24,32,47,285,23,36,31,133,44,49,42,167,47*7C
$GLGSV,3,1,10,69,00,194,,70,31,245,27,71,30,305,17,72,03,345,*67
$GLGSV,3,2,10,73,28,297,,79,26,073,,80,59,359,,81,32,046,25*6F
$GLGSV,3,3,10,82,44,111,29,83,17,157,24*6C
$GNGLL,4024.98376,N,00340.21565,W,223104.00,A,D*65
$GNRMC,223105.00,A,4024.98372,N,00340.21571,W,0.084,,021021,,,D*70
$GNVTG,,T,,M,0.084,N,0.155,K,D*35
$GNGGA,223105.00,4024.98372,N,00340.21571,W,2,11,0.91,685.4,M,50.2,M,,0000*56
$GNGSA,A,3,32,12,31,25,24,06,02,29,,,,,1.67,0.91,1.40*1F
$GNGSA,A,3,82,70,71,,,,,,,,,,1.67,0.91,1.40*1A
$GPGSV,3,1,12,02,20,089,21,06,12,052,26,10,00,240,,11,14,086,26*74
$GPGSV,3,2,12,12,61,038,29,24,39,118,38,25,71,307,23,29,38,186,43*7C
$GPGSV,3,3,12,31,11,303,25,32,47,285,24,36,31,133,44,49,42,167,47*7A
$GLGSV,3,1,10,69,00,194,,70,31,245,27,71,30,305,16,72,03,345,*66
$GLGSV,3,2,10,73,28,297,,79,26,073,,80,59,359,,81,32,046,25*6F
$GLGSV,3,3,10,82,44,111,29,83,17,157,24*6C
$GNGLL,4024.98372,N,00340.21571,W,223105.00,A,D*65
$GNRMC,223106.00,A,4024.98359,N,00340.21570,W,0.283,,021021,,,D*7E
$GNVTG,,T,,M,0.283,N,0.524,K,D*32
$GNGGA,223106.00,4024.98359,N,00340.21570,W,2,11,0.92,685.8,M,50.2,M,,0000*52
$GNGSA,A,3,32,12,31,25,24,06,02,29,,,,,1.82,0.92,1.57*11
$GNGSA,A,3,82,70,71,,,,,,,,,,1.82,0.92,1.57*14
$GPGSV,3,1,12,02,20,089,20,06,12,052,25,10,00,240,,11,14,086,26*76
$GPGSV,3,2,12,12,61,038,29,24,39,118,38,25,71,307,21,29,38,186,43*7E
$GPGSV,3,3,12,31,11,303,24,32,47,285,24,36,31,133,45,49,42,167,47*7A
$GLGSV,3,1,10,69,00,194,,70,31,245,27,71,30,305,16,72,03,345,*66
$GLGSV,3,2,10,73,28,297,,79,26,073,,80,59,359,,81,32,046,24*6E
$GLGSV,3,3,10,82,44,111,29,83,17,157,25*6D
$GNGLL,4024.98359,N,00340.21570,W,223106.00,A,D*6E
$GNRMC,223107.00,A,4024.98350,N,00340.21571,W,0.164,,021021,,,D*7D
$GNVTG,,T,,M,0.164,N,0.304,K,D*3C
$GNGGA,223107.00,4024.98350,N,00340.21571,W,2,11,0.92,686.3,M,50.2,M,,0000*53
$GNGSA,A,3,32,12,31,25,24,06,02,29,,,,,1.82,0.92,1.57*11
$GNGSA,A,3,82,70,71,,,,,,,,,,1.82,0.92,1.57*14
$GPGSV,3,1,12,02,20,089,20,06,12,052,24,10,00,240,,11,14,086,27*76
$GPGSV,3,2,12,12,61,038,28,24,39,118,38,25,71,307,20,29,38,186,43*7E
$GPGSV,3,3,12,31,11,303,25,32,47,285,25,36,31,133,44,49,42,167,47*7B
$GLGSV,3,1,10,69,00,194,,70,31,245,27,71,30,305,15,72,03,345,*65
$GLGSV,3,2,10,73,28,297,,79,26,073,,80,59,359,,81,32,046,23*69
$GLGSV,3,3,10,82,44,111,29,83,17,157,24*6C
$GNGLL,4024.98350,N,00340.21571,W,223107.00,A,D*67
$GNRMC,223108.00,A,4024.98343,N,00340.21571,W,0.069,,021021,,,D*7C
$GNVTG,,T,,M,0.069,N,0.129,K,D*3D
$GNGGA,223108.00,4024.98343,N,00340.21571,W,2,11,0.95,686.5,M,50.2,M,,0000*5F
$GNGSA,A,3,32,12,31,25,24,06,02,29,,,,,1.90,0.95,1.64*15
$GNGSA,A,3,82,70,71,,,,,,,,,,1.90,0.95,1.64*10
$GPGSV,3,1,12,02,20,089,20,06,12,052,24,10,00,240,,11,14,086,27*76
$GPGSV,3,2,12,12,61,038,28,24,39,118,38,25,71,307,18,29,38,186,43*75
$GPGSV,3,3,12,31,11,303,25,32,47,285,25,36,31,133,44,49,42,167,47*7B
$GLGSV,3,1,10,69,00,194,,70,31,245,27,71,30,305,14,72,03,345,*64
$GLGSV,3,2,10,73,28,297,,79,26,073,,80,59,359,,81,32,046,22*68
$GLGSV,3,3,10,82,44,111,29,83,17,157,25*6D
$GNGLL,4024.98343,N,00340.21571,W,223108.00,A,D*6A
$GNRMC,223109.00,A,4024.98339,N,00340.21574,W,0.058,,021021,,,D*77
$GNVTG,,T,,M,0.058,N,0.107,K,D*33
$GNGGA,223109.00,4024.98339,N,00340.21574,W,2,11,0.95,686.8,M,50.2,M,,0000*5B
$GNGSA,A,3,32,12,31,25,24,06,02,29,,,,,1.90,0.95,1.64*15
$GNGSA,A,3,82,70,71,,,,,,,,,,1.90,0.95,1.64*10
$GPGSV,3,1,12,02,20,089,20,06,12,052,24,10,00,240,,11,14,086,27*76
$GPGSV,3,2,12,12,61,038,27,24,39,118,38,25,71,307,18,29,38,186,43*7A
$GPGSV,3,3,12,31,11,303,25,32,47,285,26,36,31,133,44,49,42,167,47*78
$GLGSV,3,1,10,69,00,194,,70,31,245,27,71,30,305,13,72,03,345,*63
$GLGSV,3,2,10,73,28,297,,79,26,073,,80,59,359,,81,32,046,22*68
$GLGSV,3,3,10,82,44,111,29,83,17,157,25*6D
$GNGLL,4024.98339,N,00340.21574,W,223109.00,A,D*63
$GNRMC,223110.00,A,4024.98334,N,00340.21578,W,0.059,,021021,,,D*7F
$GNVTG,,T,,M,0.059,N,0.110,K,D*34
$GNGGA,223110.00,4024.98334,N,00340.21578,W,2,11,0.95,687.1,M,50.2,M,,0000*5A
$GNGSA,A,3,32,12,31,25,24,06,02,29,,,,,1.90,0.95,1.64*15
$GNGSA,A,3,82,70,71,,,,,,,,,,1.90,0.95,1.64*10
$GPGSV,3,1,12,02,20,089,20,06,12,052,24,10,00,240,,11,14,086,28*79
$GPGSV,3,2,12,12,61,038,26,24,39,118,38,25,71,307,17,29,38,186,43*74
$GPGSV,3,3,12,31,11,303,25,32,47,285,26,36,31,133,44,49,42,167,47*78
$GLGSV,3,1,10,69,00,194,,70,31,245,28,71,30,305,12,72,03,345,*6D
$GLGSV,3,2,10,73,28,297,,79,26,073,,80,59,359,,81,32,046,22*68
$GLGSV,3,3,10,82,44,111,29,83,17,157,25*6D
$GNGLL,4024.98334,N,00340.21578,W,223110.00,A,D*6A
$GNRMC,223111.00,A,4024.98329,N,00340.21581,W,0.036,,021021,,,D*7D
$GNVTG,,T,,M,0.036,N,0.066,K,D*3D
$GNGGA,223111.00,4024.98329,N,00340.21581,W,2,09,1.10,687.4,M,50.2,M,,0000*51
$GNGSA,A,3,32,12,31,24,06,02,29,,,,,,2.29,1.10,2.01*1F
$GNGSA,A,3,82,70,,,,,,,,,,,2.29,1.10,2.01*1B
$GPGSV,3,1,12,02,20,089,21,06,12,052,24,10,00,240,,11,14,086,28*78
$GPGSV,3,2,12,12,61,038,26,24,39,118,38,25,71,307,,29,38,186,43*72
$GPGSV,3,3,12,31,11,303,26,32,47,285,27,36,31,133,45,49,42,167,47*7B
$GLGSV,3,1,10,69,00,194,,70,31,245,28,71,30,305,09,72,03,345,*67
$GLGSV,3,2,10,73,28,297,,79,26,074,,80,59,359,,81,32,046,22*6F
$GLGSV,3,3,10,82,44,111,29,83,17,157,25*6D
$GNGLL,4024.98329,N,00340.21581,W,223111.00,A,D*61
$GNRMC,223112.00,A,4024.98323,N,00340.21580,W,0.061,,021021,,,D*77
$GNVTG,,T,,M,0.061,N,0.113,K,D*3C
$GNGGA,223112.00,4024.98323,N,00340.21580,W,2,09,1.10,687.7,M,50.2,M,,0000*5A
$GNGSA,A,3,32,12,31,24,06,02,29,,,,,,2.29,1.10,2.01*1F
$GNGSA,A,3,82,70,,,,,,,,,,,2.29,1.10,2.01*1B
$GPGSV,3,1,12,02,20,089,21,06,12,052,23,10,00,240,,11,14,086,28*7F
$GPGSV,3,2,12,12,61,038,26,24,39,118,38,25,71,307,,29,38,186,43*72
$GPGSV,3,3,12,31,11,303,26,32,47,285,27,36,31,133,45,49,42,167,47*7B
$GLGSV,3,1,10,69,00,194,,70,31,245,27,71,30,305,09,72,03,345,*68
$GLGSV,3,2,10,73,28,297,,79,26,074,,80,59,360,,81,32,046,23*64
$GLGSV,3,3,10,82,44,111,29,83,17,157,25*6D
$GNGLL,4024.98323,N,00340.21580,W,223112.00,A,D*69
$GNRMC,223113.00,A,4024.98319,N,00340.21583,W,0.040,,021021,,,D*7F
$GNVTG,,T,,M,0.040,N,0.074,K,D*3F
$GNGGA,223113.00,4024.98319,N,00340.21583,W,2,10,0.96,688.1,M,50.2,M,,0000*5F
$GNGSA,A,3,32,12,31,24,06,02,29,,,,,,1.88,0.96,1.61*1D
$GNGSA,A,3,82,70,71,,,,,,,,,,1.88,0.96,1.61*1F
$GPGSV,3,1,12,02,20,089,21,06,12,052,23,10,00,240,,11,14,086,28*7F
$GPGSV,3,2,12,12,61,038,25,24,39,118,38,25,71,307,,29,38,186,43*71
$GPGSV,3,3,12,31,11,303,26,32,47,285,28,36,31,133,45,49,42,167,47*74
$GLGSV,3,1,10,69,00,194,,70,31,245,27,71,30,305,11,72,03,345,*61
$GLGSV,3,2,10,73,28,297,,79,26,074,,80,59,360,,81,31,045,23*64
$GLGSV,3,3,10,82,44,111,29,83,17,157,25*6D
$GNGLL,4024.98319,N,00340.21583,W,223113.00,A,D*62
$GNRMC,223114.00,A,4024.98314,N,00340.21586,W,0.088,,021021,,,D*74
$GNVTG,,T,,M,0.088,N,0.163,K,D*3C
$GNGGA,223114.00,4024.98314,N,00340.21586,W,2,10,0.96,688.3,M,50.2,M,,0000*52
$GNGSA,A,3,32,12,31,24,06,02,29,,,,,,1.88,0.96,1.61*1D
$GNGSA,A,3,82,70,71,,,,,,,,,,1.88,0.96,1.61*1F
$GPGSV,3,1,12,02,20,089,21,06,12,052,23,10,00,240,,11,14,086,27*70
$GPGSV,3,2,12,12,61,038,25,24,39,118,37,25,71,307,,29,38,186,43*7E
$GPGSV,3,3,12,31,11,303,26,32,47,285,28,36,31,133,45,49,42,167,47*74
$GLGSV,3,1,10,69,00,194,,70,31,245,27,71,30,305,12,72,03,345,*62
$GLGSV,3,2,10,73,28,297,,79,26,074,,80,59,360,,81,31,045,22*65
$GLGSV,3,3,10,82,44,110,29,83,17,157,25*6C
$GNGLL,4024.98314,N,00340.21586,W,223114.00,A,D*6D
$GNRMC,223115.00,A,4024.98309,N,00340.21590,W,0.112,,021021,,,D*7C
$GNVTG,,T,,M,0.112,N,0.208,K,D*30
$GNGGA,223115.00,4024.98309,N,00340.21590,W,2,10,0.96,688.4,M,50.2,M,,0000*5F
$GNGSA,A,3,32,12,31,24,06,02,29,,,,,,1.88,0.96,1.61*1D
$GNGSA,A,3,82,70,71,,,,,,,,,,1.88,0.96,1.61*1F
$GPGSV,3,1,12,02,20,089,21,06,12,052,23,10,00,240,,11,14,086,27*70
$GPGSV,3,2,12,12,61,038,24,24,39,118,38,25,71,307,,29,38,186,42*71
$GPGSV,3,3,12,31,11,303,26,32,47,285,28,36,31,133,45,49,42,167,47*74
$GLGSV,3,1,10,69,00,194,,70,31,245,27,71,30,305,12,72,03,345,*62
$GLGSV,3,2,10,73,28,297,,79,26,074,19,80,59,360,,81,31,045,21*6E
$GLGSV,3,3,10,82,44,110,29,83,18,157,25*63
$GNGLL,4024.98309,N,00340.21590,W,223115.00,A,D*67
$GNRMC,223116.00,A,4024.98306,N,00340.21595,W,0.048,,021021,,,D*7B
$GNVTG,,T,,M,0.048,N,0.089,K,D*35
$GNGGA,223116.00,4024.98306,N,00340.21595,W,2,10,0.96,688.6,M,50.2,M,,0000*54
$GNGSA,A,3,32,12,31,24,06,02,29,,,,,,1.88,0.96,1.61*1D
$GNGSA,A,3,82,70,71,,,,,,,,,,1.88,0.96,1.61*1F
$GPGSV,3,1,12,02,20,089,20,06,12,052,23,10,00,240,,11,14,086,27*71
$GPGSV,3,2,12,12,61,038,22,24,39,118,38,25,71,307,,29,38,186,42*77
$GPGSV,3,3,12,31,11,303,26,32,47,285,28,36,31,133,45,49,42,167,47*74
$GLGSV,3,1,10,69,00,194,,70,31,245,28,71,30,305,12,72,03,345,*6D
$GLGSV,3,2,10,73,28,297,,79,26,074,,80,59,360,,81,31,045,19*6D
$GLGSV,3,3,10,82,44,110,30,83,18,157,25*6B
$GNGLL,4024.98306,N,00340.21595,W,223116.00,A,D*6E
$GNRMC,223117.00,A,4024.98303,N,00340.21597,W,0.032,,021021,,,D*70
$GNVTG,,T,,M,0.032,N,0.060,K,D*3F
$GNGGA,223117.00,4024.98303,N,00340.21597,W,2,10,0.96,688.7,M,50.2,M,,0000*53
$GNGSA,A,3,32,12,31,24,06,02,29,,,,,,1.88,0.96,1.61*1D
$GNGSA,A,3,82,70,71,,,,,,,,,,1.88,0.96,1.61*1F
$GPGSV,3,1,12,02,20,089,19,06,12,052,24,10,00,240,,11,14,086,27*7C
$GPGSV,3,2,12,12,61,038,22,24,39,118,38,25,71,307,,29,38,186,42*77
$GPGSV,3,3,12,31,11,303,26,32,47,285,29,36,31,133,45,49,42,167,47*75
$GLGSV,3,1,10,69,00,194,,70,31,245,28,71,30,305,15,72,03,345,*6A
$GLGSV,3,2,10,73,28,297,,79,26,074,,80,59,360,,81,31,045,19*6D
$GLGSV,3,3,10,82,44,110,30,83,18,157,25*6B
$GNGLL,4024.98303,N,00340.21597,W,223117.00,A,D*68
$GNRMC,223118.00,A,4024.98297,N,00340.21599,W,0.097,,021021,,,D*72
$GNVTG,,T,,M,0.097,N,0.179,K,D*39
$GNGGA,223118.00,4024.98297,N,00340.21599,W,2,10,0.96,688.9,M,50.2,M,,0000*50
$GNGSA,A,3,32,12,31,24,06,02,29,,,,,,1.88,0.96,1.61*1D
$GNGSA,A,3,82,70,71,,,,,,,,,,1.88,0.96,1.61*1F
$GPGSV,3,1,12,02,20,089,19,06,12,052,25,10,00,240,,11,14,086,27*7D
$GPGSV,3,2,12,12,61,038,21,24,39,118,38,25,71,307,16,29,38,186,42*73
$GPGSV,3,3,12,31,11,303,26,32,47,285,28,36,31,133,44,49,42,167,47*75
$GLGSV,3,1,10,69,00,194,,70,31,245,28,71,30,305,14,72,03,345,*6B
$GLGSV,3,2,10,73,28,297,,79,26,074,,80,59,360,,81,31,045,19*6D
$GLGSV,3,3,10,82,44,110,30,83,18,157,25*6B
$GNGLL,4024.98297,N,00340.21599,W,223118.00,A,D*65
$GNRMC,223119.00,A,4024.98292,N,00340.21603,W,0.018,,021021,,,D*71
$GNVTG,,T,,M,0.018,N,0.034,K,D*36
$GNGGA,223119.00,4024.98292,N,00340.21603,W,2,10,0.96,689.3,M,50.2,M,,0000*5F
$GNGSA,A,3,32,12,31,24,06,02,29,,,,,,1.88,0.96,1.61*1D
$GNGSA,A,3,82,70,71,,,,,,,,,,1.88,0.96,1.61*1F
$GPGSV,3,1,12,02,20,089,19,06,12,052,26,10,00,240,,11,14,086,27*7E
$GPGSV,3,2,12,12,61,038,20,24,39,118,38,25,71,307,16,29,38,186,42*72
$GPGSV,3,3,12,31,11,303,26,32,47,285,28,36,31,133,44,49,42,167,47*75
$GLGSV,3,1,10,69,00,194,,70,31,245,28,71,30,305,14,72,03,345,*6B
$GLGSV,3,2,10,73,28,297,,79,26,074,,80,59,360,,81,31,045,19*6D
$GLGSV,3,3,10,82,44,110,31,83,18,157,25*6A
$GNGLL,4024.98292,N,00340.21603,W,223119.00,A,D*61
$GNRMC,223120.00,A,4024.98291,N,00340.21608,W,0.123,,021021,,,D*7A
$GNVTG,,T,,M,0.123,N,0.227,K,D*3F
$GNGGA,223120.00,4024.98291,N,00340.21608,W,2,10,0.96,689.7,M,50.2,M,,0000*59
$GNGSA,A,3,32,12,31,24,06,02,29,,,,,,1.88,0.96,1.61*1D
$GNGSA,A,3,82,70,71,,,,,,,,,,1.88,0.96,1.61*1F
$GPGSV,3,1,12,02,20,089,20,06,12,052,26,10,00,240,,11,14,086,27*74
$GPGSV,3,2,12,12,61,038,19,24,39,118,38,25,71,307,16,29,38,186,42*78
$GPGSV,3,3,12,31,11,303,26,32,47,285,29,36,31,133,45,49,42,167,47*75
$GLGSV,3,1,10,69,00,194,,70,31,245,28,71,30,305,14,72,03,345,*6B
$GLGSV,3,2,10,73,28,297,,79,26,074,,80,59,360,,81,31,045,20*67
$GLGSV,3,3,10,82,44,110,31,83,18,157,25*6A
$GNGLL,4024.98291,N,00340.21608,W,223120.00,A,D*63
$GNRMC,223121.00,A,4024.98288,N,00340.21612,W,0.056,,021021,,,D*7B
$GNVTG,,T,,M,0.056,N,0.104,K,D*3E
$GNGGA,223121.00,4024.98288,N,00340.21612,W,2,10,0.96,690.0,M,50.2,M,,0000*54
$GNGSA,A,3,32,12,31,24,06,02,29,,,,,,1.88,0.96,1.61*1D
$GNGSA,A,3,82,70,71,,,,,,,,,,1.88,0.96,1.61*1F
$GPGSV,3,1,12,02,20,089,21,06,12,052,26,10,00,240,,11,14,086,27*75
$GPGSV,3,2,12,12,61,038,18,24,39,118,38,25,71,307,17,29,38,186,42*78
$GPGSV,3,3,12,31,11,303,26,32,47,285,29,36,31,133,45,49,42,167,47*75
$GLGSV,3,1,10,69,00,194,,70,31,245,28,71,30,305,14,72,03,345,*6B
$GLGSV,3,2,10,73,28,297,,79,26,074,,80,59,360,,81,31,045,21*66
$GLGSV,3,3,10,82,44,110,31,83,18,157,26*69
$GNGLL,4024.98288,N,00340.21612,W,223121.00,A,D*61
$GNRMC,223122.00,A,4024.98284,N,00340.21621,W,0.028,,021021,,,D*7D
$GNVTG,,T,,M,0.028,N,0.053,K,D*34
$GNGGA,223122.00,4024.98284,N,00340.21621,W,2,11,0.91,690.2,M,50.2,M,,0000*5F
$GNGSA,A,3,32,12,31,25,24,06,02,29,,,,,1.62,0.91,1.33*1E
$GNGSA,A,3,82,70,71,,,,,,,,,,1.62,0.91,1.33*1B
$GPGSV,3,1,12,02,21,089,20,06,12,052,26,10,00,240,,11,14,086,27*75
$GPGSV,3,2,12,12,61,038,16,24,39,118,38,25,71,307,18,29,38,186,42*79
$GPGSV,3,3,12,31,11,303,26,32,47,285,29,36,31,133,45,49,42,167,47*75
$GLGSV,3,1,10,69,00,194,,70,31,245,28,71,30,305,13,72,03,345,*6C
$GLGSV,3,2,10,73,28,297,,79,26,074,,80,59,360,,81,31,045,21*66
$GLGSV,3,3,10,82,44,110,31,83,18,157,26*69
$GNGLL,4024.98284,N,00340.21621,W,223122.00,A,D*6E
$GNRMC,223123.00,A,4024.98282,N,00340.21630,W,0.005,,021021,,,D*75
$GNVTG,,T,,M,0.005,N,0.008,K,D*35
$GNGGA,223123.00,4024.98282,N,00340.21630,W,2,11,0.91,690.4,M,50.2,M,,0000*5E
$GNGSA,A,3,32,12,31,25,24,06,02,29,,,,,1.62,0.91,1.33*1E
$GNGSA,A,3,82,70,71,,,,,,,,,,1.62,0.91,1.33*1B
$GPGSV,3,1,12,02,21,089,21,06,12,052,26,10,00,240,,11,14,086,26*75
$GPGSV,3,2,12,12,61,038,16,24,39,118,38,25,71,307,19,29,38,186,42*78
$GPGSV,3,3,12,31,11,303,25,32,47,285,30,36,31,133,45,49,42,167,47*7E
$GLGSV,3,1,10,69,00,194,,70,31,245,28,71,30,305,11,72,03,345,*6E
$GLGSV,3,2,10,73,28,297,,79,26,074,,80,59,360,,81,31,045,22*65
$GLGSV,3,3,10,82,44,110,31,83,18,157,26*69
$GNGLL,4024.98282,N,00340.21630,W,223123.00,A,D*69
$GNRMC,223124.00,A,4024.98284,N,00340.21639,W,0.089,,021021,,,D*79
$GNVTG,,T,,M,0.089,N,0.165,K,D*3B
$GNGGA,223124.00,4024.98284,N,00340.21639,W,2,11,0.91,690.6,M,50.2,M,,0000*54
$GNGSA,A,3,32,12,31,25,24,06,02,29,,,,,1.62,0.91,1.33*1E
$GNGSA,A,3,82,70,71,,,,,,,,,,1.62,0.91,1.33*1B
$GPGSV,3,1,12,02,21,089,21,06,12,052,25,10,00,240,,11,14,086,25*75
$GPGSV,3,2,12,12,61,038,16,24,39,118,38,25,71,307,20,29,38,186,42*72
$GPGSV,3,3,12,31,11,303,25,32,47,285,30,36,31,133,45,49,42,167,47*7E
$GLGSV,3,1,10,69,00,194,,70,31,245,28,71,30,305,13,72,03,345,*6C
$GLGSV,3,2,10,73,28,297,,79,26,074,,80,59,360,,81,31,045,21*66
$GLGSV,3,3,10,82,44,110,30,83,18,157,26*68
$GNGLL,4024.98284,N,00340.21639,W,223124.00,A,D*61
$GNRMC,223125.00,A,4024.98285,N,00340.21649,W,0.065,,021021,,,D*7C
$GNVTG,,T,,M,0.065,N,0.121,K,D*39
$GNGGA,223125.00,4024.98285,N,00340.21649,W,2,11,0.91,690.7,M,50.2,M,,0000*52
$GNGSA,A,3,32,12,31,25,24,06,02,29,,,,,1.62,0.91,1.33*1E
$GNGSA,A,3,82,70,71,,,,,,,,,,1.62,0.91,1.33*1B
$GPGSV,3,1,12,02,21,089,21,06,12,052,25,10,00,240,,11,14,086,25*75
